[
    {
        "name": "ФАСТ ФУУД 2020 ООД",
        "lat": 42.66436,
        "lng": 23.45414
    },
    {
        "name": "ГАЛЯ 72 ЕООД",
        "lat": 42.70072,
        "lng": 23.36218
    },
    {
        "name": "ДЖОН ХОА ЕООД",
        "lat": 42.68375,
        "lng": 23.33007
    },
    {
        "name": "И-ВАЙЛ КЕТЪРИНГ 2012 ООД",
        "lat": 42.60426,
        "lng": 23.02905
    },
    {
        "name": "ЛОЗЯ ООД",
        "lat": 42.63047,
        "lng": 23.30638
    },
    {
        "name": "ПАВКА 53 ЕООД",
        "lat": 42.37348,
        "lng": 23.49684
    },
    {
        "name": "ДЕСО ТРЕЙД ООД",
        "lat": 42.7158145976416,
        "lng": 23.2447086274623
    },
    {
        "name": "МЛАДДЖИ ЕООД",
        "lat": 42.67035,
        "lng": 23.28928
    },
    {
        "name": "МЛАДДЖИ ООД",
        "lat": 42.67035,
        "lng": 23.28928
    },
    {
        "name": "ЕГЗОДИЯ ЕООД",
        "lat": 42.71531,
        "lng": 23.27442
    },
    {
        "name": "СИ МОН КАФЕ ЕООД",
        "lat": 42.638,
        "lng": 23.33964
    },
    {
        "name": "ГД ДЕМИ-МИГ",
        "lat": 42.697685,
        "lng": 23.321836
    },
    {
        "name": "АЛВАКОМ ТРЕЙД ЕООД",
        "lat": 42.6767,
        "lng": 23.3005
    },
    {
        "name": "БГ СТЕЙШЪН ООД",
        "lat": 42.6605211794209,
        "lng": 23.3186279609799
    },
    {
        "name": "ХРИСИ И МАГИ ЕООД",
        "lat": 42.71327,
        "lng": 24.13534
    },
    {
        "name": "ДИ ЕН ДИ ТРЕЙДИНГ ООД",
        "lat": 42.697685,
        "lng": 23.321836
    },
    {
        "name": "ВИКДИЛ 21 ЕООД",
        "lat": 42.68135,
        "lng": 23.4654
    },
    {
        "name": "ТКЗС ЛОПЯНКО ЕООД",
        "lat": 42.89736,
        "lng": 24.07143
    },
    {
        "name": "СИ-22-СТЕФАН КИСИМОВ ЕТ",
        "lat": 42.55577,
        "lng": 23.71083
    },
    {
        "name": "ИВА 2021 ЕООД",
        "lat": 42.72379,
        "lng": 23.30473
    },
    {
        "name": "АВЕНДИ3 ЕООД",
        "lat": 42.6461716949385,
        "lng": 23.3676379546523
    },
    {
        "name": "ЕКСЕЛЕНТ ФУУДС СЪРВИСИС ООД",
        "lat": 42.67577,
        "lng": 23.28898
    },
    {
        "name": "ВОМИКС ЕООД",
        "lat": 42.71735,
        "lng": 23.31627
    },
    {
        "name": "ТРЕЗОР 2022 ЕООД",
        "lat": 42.67494,
        "lng": 23.29772
    },
    {
        "name": "АЛЕКС ХОАНГ ЕООД",
        "lat": 42.67247,
        "lng": 23.29621
    },
    {
        "name": "МЪНКИС ТРЕЙД ЕООД",
        "lat": 42.66734,
        "lng": 23.35209
    },
    {
        "name": "МЪНКИС ТРЕЙД ЕООД",
        "lat": 42.66734,
        "lng": 23.35209
    },
    {
        "name": "ТРЕЙД ЕНД БИЗИ ЕООД",
        "lat": 42.65485,
        "lng": 23.31906
    },
    {
        "name": "ТРЕЙД ЕНД БИЗИ ЕООД",
        "lat": 42.64451,
        "lng": 23.31319
    },
    {
        "name": "ДРИНКС 2022 ЕООД",
        "lat": 42.60394,
        "lng": 23.11667
    },
    {
        "name": "Г И Е ЧАКЪРОВИ ЕООД",
        "lat": 42.66733,
        "lng": 23.52713
    },
    {
        "name": "ВСИЧКО Е ТОЧНО 31 ЕООД",
        "lat": 42.73698,
        "lng": 23.26999
    },
    {
        "name": "СЛ ТРЕЙД ЕООД",
        "lat": 42.69172,
        "lng": 23.31041
    },
    {
        "name": "ТРАНСКОМЕРС М ЕООД",
        "lat": 42.70237,
        "lng": 23.44979
    },
    {
        "name": "ФИЛСИМ ТРЕЙД ЕООД",
        "lat": 42.72169,
        "lng": 23.34182
    },
    {
        "name": "ЕМ АР 2 ЕООД",
        "lat": 42.70099,
        "lng": 23.3106
    },
    {
        "name": "ДЖЕЙ ЕНД ЕЙЧ ТАБАКО ООД",
        "lat": 42.68632,
        "lng": 23.35974
    },
    {
        "name": "ДЖЕЙ ЕНД ЕЙЧ ТАБАКО ООД",
        "lat": 42.69954,
        "lng": 23.28822
    },
    {
        "name": "БКК-ПС ЕООД",
        "lat": 42.6828810127587,
        "lng": 23.2460091635584
    },
    {
        "name": "МСМ.БГ. ООД",
        "lat": 42.69769,
        "lng": 23.32184
    },
    {
        "name": "ДАС 22 ЕООД",
        "lat": 42.70679,
        "lng": 23.33639
    },
    {
        "name": "СУРИКАТИ- АЦ ЕООД",
        "lat": 42.66963,
        "lng": 23.65065
    },
    {
        "name": "ДИ ЕМ БИ ДРИНКС ЕООД",
        "lat": 42.70049,
        "lng": 23.3211
    },
    {
        "name": "ЩАСТЛИВАТА ПЕКАРНА ЕООД",
        "lat": 42.67422,
        "lng": 23.35887
    },
    {
        "name": "ИМОТИ ЕЛИТ СОФИЯ ЕООД",
        "lat": 42.69769,
        "lng": 23.32184
    },
    {
        "name": "УНИКАМ АГРО ТУР ЕООД",
        "lat": 42.71297,
        "lng": 23.27001
    },
    {
        "name": "СИСКО ТРЕЙДИНГ ЕООД",
        "lat": 42.65067,
        "lng": 23.31262
    },
    {
        "name": "АМ БРАДЪРС ЕООД",
        "lat": 42.64307,
        "lng": 23.34171
    },
    {
        "name": "ДОМСТРОЙ ВЪЛКОВИ ЕООД",
        "lat": 42.69712,
        "lng": 23.35335
    },
    {
        "name": "НЕФЕЛА-БЕГС ЕООД",
        "lat": 42.70102,
        "lng": 23.31079
    },
    {
        "name": "ПАРТИ ЕСПЕРАНСА ЕООД",
        "lat": 42.7237279010837,
        "lng": 23.3058013021945
    },
    {
        "name": "ВАНЬО АУТО ЕООД",
        "lat": 42.70743,
        "lng": 23.35672
    },
    {
        "name": "ВЛАД АУТО ДРАЙВЪР ЕООД",
        "lat": 42.66588,
        "lng": 23.27225
    },
    {
        "name": "АКВИЛОН ФОРС ЕООД",
        "lat": 42.71478,
        "lng": 24.13897
    },
    {
        "name": "ВИП ТАБАКО ЕООД",
        "lat": 42.70791,
        "lng": 23.14452
    },
    {
        "name": "ЗОРНИЦА И ДЪЩЕРИ ПР ЕООД",
        "lat": 42.68929,
        "lng": 23.38279
    },
    {
        "name": "МЕДЖИК ТИ ТРАКС ЕООД",
        "lat": 42.67117,
        "lng": 23.35239
    },
    {
        "name": "ФАНТАСТИКО ГРУП ООД",
        "lat": 42.6401821676594,
        "lng": 23.3116579055786
    },
    {
        "name": "КОМЕ ООД",
        "lat": 42.6893136148046,
        "lng": 23.3708991436553
    },
    {
        "name": "КОМЕ ООД",
        "lat": 42.6543094,
        "lng": 23.3970142
    },
    {
        "name": "КОМЕ ООД",
        "lat": 42.7081221664476,
        "lng": 23.1515537564816
    },
    {
        "name": "КОМЕ ООД",
        "lat": 42.711674441108,
        "lng": 23.2975128350265
    },
    {
        "name": "КОМЕ ООД",
        "lat": 42.6894062268735,
        "lng": 23.2523737769073
    },
    {
        "name": "ДАЛИЯ ВАЙС 7 ЕООД",
        "lat": 42.33757,
        "lng": 23.54601
    },
    {
        "name": "ЛИЛИЯ - 7 ИВАН ИВАНОВ ЕТ",
        "lat": 42.26087,
        "lng": 23.83049
    },
    {
        "name": "ЛИЛИЯ - 7 ИВАН ИВАНОВ ЕТ",
        "lat": 42.26335,
        "lng": 23.82665
    },
    {
        "name": "РАЛИ ЕНД ПАРТНЪРС ЕООД",
        "lat": 42.4333166407602,
        "lng": 23.8207415118813
    },
    {
        "name": "БРЕЗИТЕ - Г ООД",
        "lat": 42.261341463276,
        "lng": 23.4783816710114
    },
    {
        "name": "ЯГОДА - ХРИСТО СТОЯНОВ ЕТ",
        "lat": 42.25891,
        "lng": 23.47514
    },
    {
        "name": "Г И К ГРУП ЕООД",
        "lat": 42.33586,
        "lng": 23.56074
    },
    {
        "name": "СПАСКА ДИМИТРОВА ЕТ",
        "lat": 42.27742,
        "lng": 23.53963
    },
    {
        "name": "НИКОЛ-2008-ЛИЛИ ГЕОРГИЕВА ЕТ",
        "lat": 42.47974,
        "lng": 23.75431
    },
    {
        "name": "ПУМА 02 ЕООД",
        "lat": 42.44603,
        "lng": 23.81704
    },
    {
        "name": "ВИРЕЯ ЛОМ ООД",
        "lat": 43.82039,
        "lng": 23.23543
    },
    {
        "name": "ВИРЕЯ ЛОМ ООД",
        "lat": 43.83124,
        "lng": 23.23724
    },
    {
        "name": "ВИРЕЯ ЛОМ ООД",
        "lat": 43.81028,
        "lng": 23.23413
    },
    {
        "name": "ВИМДЕКС ЕООД",
        "lat": 43.77595,
        "lng": 23.73189
    },
    {
        "name": "АНТЪНИ ГРУП 11 ЕООД",
        "lat": 43.70538,
        "lng": 23.82722
    },
    {
        "name": "ФАР ПЕТРОЛИУМ ЕООД",
        "lat": 43.7748,
        "lng": 23.72612
    },
    {
        "name": "ФАР ПЕТРОЛИУМ ЕООД",
        "lat": 43.67195,
        "lng": 23.99159
    },
    {
        "name": "ФАР ПЕТРОЛИУМ ЕООД",
        "lat": 43.14104,
        "lng": 23.70289
    },
    {
        "name": "ФАР ПЕТРОЛИУМ ЕООД",
        "lat": 43.63799,
        "lng": 23.78383
    },
    {
        "name": "ФАР ПЕТРОЛИУМ ЕООД",
        "lat": 42.5931029081195,
        "lng": 23.6181971803307
    },
    {
        "name": "СКАТ ЕООД",
        "lat": 43.77466,
        "lng": 23.73435
    },
    {
        "name": "ВИМДЕКС ЕООД",
        "lat": 43.7784,
        "lng": 23.72228
    },
    {
        "name": "ВИМДЕКС ЕООД",
        "lat": 43.7784,
        "lng": 23.72228
    },
    {
        "name": "ЕС ЕНД БЕ ООД",
        "lat": 43.82885,
        "lng": 23.23519
    },
    {
        "name": "АНАТИ ООД",
        "lat": 43.7663,
        "lng": 23.73643
    },
    {
        "name": "ТОП ШАНС ДОБРИНКА ЦВЕТКОВА ЕТ",
        "lat": 43.82157,
        "lng": 23.24162
    },
    {
        "name": "ТИМА 2011 ЕООД",
        "lat": 43.2004,
        "lng": 23.54704
    },
    {
        "name": "ВАЛКО 61 ЕООД",
        "lat": 43.82095,
        "lng": 23.23817
    },
    {
        "name": "ВАЛКО 61 ЕООД",
        "lat": 43.82145,
        "lng": 23.23826
    },
    {
        "name": "КИПРИЯНА БГ ООД",
        "lat": 42.441277997852,
        "lng": 23.8173991441726
    },
    {
        "name": "ОГИ - К.О.М. - ОГНЯН ГЕОРГИЕВ ЕООД",
        "lat": 42.31098,
        "lng": 23.86136
    },
    {
        "name": "ДАНЕЛС-79 ЕООД",
        "lat": 42.62382,
        "lng": 23.58348
    },
    {
        "name": "АДИМЕКС 2000 ООД",
        "lat": 42.30874,
        "lng": 23.84773
    },
    {
        "name": "ЖОРО - 87 ЕООД",
        "lat": 42.30771,
        "lng": 23.85829
    },
    {
        "name": "ЖОРО - 87 ЕООД",
        "lat": 42.3072632970518,
        "lng": 23.8586414605379
    },
    {
        "name": "ВЕСЕЛИНА ТРАНС ЕООД",
        "lat": 42.63146,
        "lng": 23.5812
    },
    {
        "name": "САКСА ООД",
        "lat": 42.3096537573018,
        "lng": 23.7855231016874
    },
    {
        "name": "САКСА ООД",
        "lat": 42.33219,
        "lng": 23.98794
    },
    {
        "name": "САКСА ООД",
        "lat": 42.44794,
        "lng": 23.76411
    },
    {
        "name": "ЗДРАВЕЦ 04 ООД",
        "lat": 43.22208,
        "lng": 23.54767
    },
    {
        "name": "ЗДРАВЕЦ 04 ООД",
        "lat": 43.22208,
        "lng": 23.54767
    },
    {
        "name": "АНЕТА ЯКИМОВА ИД 2002 ЕТ",
        "lat": 43.23557,
        "lng": 23.52528
    },
    {
        "name": "РОКО-ФУУД ЕООД",
        "lat": 43.73583,
        "lng": 23.96007
    },
    {
        "name": "ПАВЛИ 16 ЕООД",
        "lat": 43.80132,
        "lng": 23.35423
    },
    {
        "name": "ЖИТАРА ООД",
        "lat": 43.21194,
        "lng": 23.54359
    },
    {
        "name": "КОСАНЯ АД",
        "lat": 43.68724,
        "lng": 23.8545
    },
    {
        "name": "КОСАНЯ АД",
        "lat": 43.69305,
        "lng": 23.81226
    },
    {
        "name": "КОСАНЯ АД",
        "lat": 43.67838,
        "lng": 23.86455
    },
    {
        "name": "КОСАНЯ АД",
        "lat": 43.5334,
        "lng": 23.79994
    },
    {
        "name": "ДЕЙВИ - ЙОРДАН ЙОРДАНОВ ЕТ",
        "lat": 43.23321,
        "lng": 23.12513
    },
    {
        "name": "ГЕОРГИ ГЕОРГИЕВ ЕТ",
        "lat": 43.83063,
        "lng": 23.23608
    },
    {
        "name": "ВАЛЕДОН ЕООД",
        "lat": 43.20151,
        "lng": 23.55157
    },
    {
        "name": "ВРАЦА-ФЕРИТ ЕООД",
        "lat": 43.20934,
        "lng": 23.54932
    },
    {
        "name": "ВЕСИНВЕСТ 777 ЕООД",
        "lat": 43.42908,
        "lng": 23.22995
    },
    {
        "name": "ПИП 2013 ЕООД",
        "lat": 43.19903,
        "lng": 23.55893
    },
    {
        "name": "МАРСИ -В.С  ЕООД",
        "lat": 43.82391,
        "lng": 23.23776
    },
    {
        "name": "ТЕДА ЕООД",
        "lat": 43.82315,
        "lng": 23.23746
    },
    {
        "name": "ЕКОМЕТАН ВРАЦА ЕООД",
        "lat": 43.23933,
        "lng": 23.56707
    },
    {
        "name": "ДЕНИС - КАЯ ЕООД",
        "lat": 43.59595,
        "lng": 23.81887
    },
    {
        "name": "БРИЗ ДИ ЕС ЕЛ ЕООД",
        "lat": 43.83111,
        "lng": 23.23392
    },
    {
        "name": "ЦЕНО СПАСОВ 2009 ЕООД",
        "lat": 43.37242,
        "lng": 23.48099
    },
    {
        "name": "КООПЕРАЦИЯ СВОБОДА 90",
        "lat": 43.60587,
        "lng": 23.28061
    },
    {
        "name": "ФИК ИНВЕСТ ООД",
        "lat": 43.83008,
        "lng": 23.23405
    },
    {
        "name": "ПЛАМ 98 ПЕНКА МИХАЙЛОВА ЕТ",
        "lat": 43.22109,
        "lng": 23.54945
    },
    {
        "name": "ЛАРИСА М ЛАРИСА АНГЕЛОВА ЕООД",
        "lat": 43.19504,
        "lng": 23.564
    },
    {
        "name": "МС БЪЧВАТА ЕООД",
        "lat": 43.22459,
        "lng": 23.5428
    },
    {
        "name": "КРЕАТИВ ЕМ ЕН ЕООД",
        "lat": 43.40438,
        "lng": 23.22653
    },
    {
        "name": "СТРЕЛА - ДИМИТЪР ЛИЛОВСКИ ЕТ",
        "lat": 43.14592,
        "lng": 23.70253
    },
    {
        "name": "МАГНИТ В-1 ЕООД",
        "lat": 43.99773,
        "lng": 22.88215
    },
    {
        "name": "МАГНИТ В-1 ЕООД",
        "lat": 43.99382,
        "lng": 22.86677
    },
    {
        "name": "МАГНИТ В-1 ЕООД",
        "lat": 43.91109,
        "lng": 22.82329
    },
    {
        "name": "РАДОЦВЕТ - ПЛАМЕН ЦВЕТАНОВ ЕТ",
        "lat": 44.00019,
        "lng": 22.88158
    },
    {
        "name": "ВИЛОС ЕООД",
        "lat": 43.99391,
        "lng": 22.87687
    },
    {
        "name": "ВАЛДИ - ВИДИН ЕООД",
        "lat": 43.99426,
        "lng": 22.87674
    },
    {
        "name": "ДИШО ЕООД",
        "lat": 43.99585,
        "lng": 22.86878
    },
    {
        "name": "МАРИ - 80 ЕООД",
        "lat": 43.99578,
        "lng": 22.87123
    },
    {
        "name": "МИРАКЪЛС ЕООД",
        "lat": 43.98561,
        "lng": 22.87616
    },
    {
        "name": "ПАНКОВА И СИНОВЕ ЕООД",
        "lat": 43.98573,
        "lng": 22.87595
    },
    {
        "name": "АНДИ-07 ВД ЕООД",
        "lat": 43.98813,
        "lng": 22.8646
    },
    {
        "name": "МАК Б ЕООД",
        "lat": 43.98773,
        "lng": 22.86456
    },
    {
        "name": "ВАЛЕНТИН 63 ООД",
        "lat": 43.98807,
        "lng": 22.86429
    },
    {
        "name": "БИСЕР - ММ ЕООД",
        "lat": 43.99769,
        "lng": 22.86798
    },
    {
        "name": "ЛАН 2008 ЕООД",
        "lat": 43.97934,
        "lng": 22.87048
    },
    {
        "name": "ГАНИЕЛА ЛЮБЕНОВА ЕООД",
        "lat": 43.8145,
        "lng": 23.23887
    },
    {
        "name": "ВИЛИ-2007 ЕООД",
        "lat": 43.81924,
        "lng": 23.23942
    },
    {
        "name": "ВЕРОНКА - 2016 ЕООД",
        "lat": 43.82024,
        "lng": 23.23826
    },
    {
        "name": "ТИМ ВД ЕООД",
        "lat": 43.73945,
        "lng": 22.72545
    },
    {
        "name": "ТИМ ВД ЕООД",
        "lat": 43.74128,
        "lng": 22.72702
    },
    {
        "name": "МАГНИТ - В2 ЕООД",
        "lat": 43.62594,
        "lng": 22.68515
    },
    {
        "name": "МАГНИТ - В2 ЕООД",
        "lat": 43.98086,
        "lng": 22.86983
    },
    {
        "name": "НИКС - ДИМОВО ЕООД",
        "lat": 43.74137,
        "lng": 22.72714
    },
    {
        "name": "ВИВИ-АН 2016 ЕООД",
        "lat": 43.21717,
        "lng": 23.55576
    },
    {
        "name": "ПЛАМЕН ЙОРДАНОВ 7  ЕООД",
        "lat": 43.08094,
        "lng": 23.57028
    },
    {
        "name": "ПЛАМЕН ЙОРДАНОВ 7  ЕООД",
        "lat": 43.08274,
        "lng": 23.57235
    },
    {
        "name": "БУЛВЕ ЕООД",
        "lat": 43.98727,
        "lng": 22.87521
    },
    {
        "name": "МИКРИТЕ - М ООД",
        "lat": 43.62802,
        "lng": 22.67697
    },
    {
        "name": "В И В СИМЕОНОВИ ЕООД",
        "lat": 43.77939,
        "lng": 23.72426
    },
    {
        "name": "ЦВЕТИ - ЦВЕТЕЛИНА ЯНКУЛОВА ЕТ",
        "lat": 43.74068,
        "lng": 23.16834
    },
    {
        "name": "ХУЛИО - ПЕПИ МИХАЙЛОВ ЕТ",
        "lat": 43.72017,
        "lng": 23.13454
    },
    {
        "name": "ПЛАМ - ПИП ЕООД",
        "lat": 43.99911,
        "lng": 22.87127
    },
    {
        "name": "ТИП ООД",
        "lat": 44.00745,
        "lng": 22.88563
    },
    {
        "name": "ЛЕНА 2013 ЕООД",
        "lat": 43.99051,
        "lng": 22.86432
    },
    {
        "name": "КРИСИ Вд - 95 ЕООД",
        "lat": 43.99539,
        "lng": 22.86786
    },
    {
        "name": "КРИСИ ВД - 95 ЕООД",
        "lat": 43.995,
        "lng": 22.87132
    },
    {
        "name": "КРИСИ ВД - 95 ЕООД",
        "lat": 43.995,
        "lng": 22.87132
    },
    {
        "name": "ДАРИЯ 77 ЕООД",
        "lat": 44.00489,
        "lng": 22.87488
    },
    {
        "name": "КАЕРО-03 - ДАФИНКА ПАСКОВА ЕООД",
        "lat": 43.99887,
        "lng": 22.86603
    },
    {
        "name": "МЕГА НЕФТ ЕООД",
        "lat": 44.00405,
        "lng": 22.87566
    },
    {
        "name": "ДЕБИ - ДИЯНА СОМНОЕВА ЕТ",
        "lat": 44.15096,
        "lng": 22.6392
    },
    {
        "name": "ЕТ СТЕВАЛ - ВАЛЯ ГЕОРГИЕВА",
        "lat": 43.62729,
        "lng": 22.68776
    },
    {
        "name": "ХРАН ЕВРОСТРОЙ ООД",
        "lat": 43.71562,
        "lng": 23.12804
    },
    {
        "name": "МИРОСЛАВ КОМЕРС 86 ЕООД",
        "lat": 43.73586,
        "lng": 23.96006
    },
    {
        "name": "ЕВРОКОНСУЛТ  ЕООД",
        "lat": 43.14847,
        "lng": 23.72243
    },
    {
        "name": "ЯНИС 2013 ООД",
        "lat": 43.81446,
        "lng": 23.23873
    },
    {
        "name": "ЦОЛОВИ - АНГЕЛ ЦОЛОВ ЕТ",
        "lat": 43.80835,
        "lng": 23.23171
    },
    {
        "name": "ЕКОСТРОЙ - 7 ЕООД",
        "lat": 43.63448,
        "lng": 23.78481
    },
    {
        "name": "ЕЛИТ ГРУП 3 ООД",
        "lat": 43.98892,
        "lng": 22.87016
    },
    {
        "name": "ЕЛИТ ГРУП 3 ООД",
        "lat": 43.98528,
        "lng": 22.83097
    },
    {
        "name": "КРАСИ ЖЕЧЕВ ЕООД",
        "lat": 43.14848,
        "lng": 23.72244
    },
    {
        "name": "АЛЕКС-ЮСЕИН КАДРИЕВ-ДОРОТЕЯ КАДРИЕВА ЕТ",
        "lat": 43.73477,
        "lng": 23.96214
    },
    {
        "name": "ЕМО - ЕМ 2007 ЕООД",
        "lat": 43.8261,
        "lng": 23.23741
    },
    {
        "name": "КРАСИМИР ЖЕЧЕВ - МАЛИНА ЕТ",
        "lat": 43.14218,
        "lng": 23.71163
    },
    {
        "name": "ПИЕЛИД - БОРИСЛАВ ДАМЯНОВ ЕТ",
        "lat": 43.32318,
        "lng": 23.52249
    },
    {
        "name": "ИВИС 90 ЕООД",
        "lat": 43.62856,
        "lng": 22.67855
    },
    {
        "name": "МИКРОГРУП ЕООД",
        "lat": 43.99221,
        "lng": 22.87741
    },
    {
        "name": "ДЕНИЦА 69 МИГЛЕНА РАНГЕЛОВА ЕООД",
        "lat": 43.71729,
        "lng": 22.60022
    },
    {
        "name": "КРАСА - ТРЕЙД ЕООД",
        "lat": 43.82104,
        "lng": 23.23751
    },
    {
        "name": "ДАНИ - ЛОМ ЕООД",
        "lat": 43.82112,
        "lng": 23.23749
    },
    {
        "name": "ТИП ООД",
        "lat": 43.99828,
        "lng": 22.86394
    },
    {
        "name": "АРИЕЛ ТН ЕООД",
        "lat": 43.14226,
        "lng": 23.70736
    },
    {
        "name": "ПК ТРУД",
        "lat": 43.14465,
        "lng": 23.71367
    },
    {
        "name": "ИМПУЛС  ООД",
        "lat": 43.99476,
        "lng": 22.85982
    },
    {
        "name": "АВТОТРАНС - 97 ЕООД",
        "lat": 43.2219,
        "lng": 23.55926
    },
    {
        "name": "СЪНРАЙС ДРИЙМ ЕООД",
        "lat": 43.22551,
        "lng": 23.54585
    },
    {
        "name": "ЛАЗАРОВ АГРО - 2015 ЕООД",
        "lat": 43.69065,
        "lng": 23.85565
    },
    {
        "name": "ПРОТОН - 91 ООД",
        "lat": 43.70997,
        "lng": 23.82828
    },
    {
        "name": "ГЕОРГИ ДИМИТРОВ - ГЕРУДИ ЕТ",
        "lat": 43.17981,
        "lng": 23.51598
    },
    {
        "name": "ТРИТОН ЕООД",
        "lat": 43.14163,
        "lng": 23.92531
    },
    {
        "name": "ГАБИ - ГЕТО ЦВЕТАНОВ ЕТ",
        "lat": 43.14239,
        "lng": 23.92577
    },
    {
        "name": "ПЕТЯ ИВАНОВА - 2016 ЕТ",
        "lat": 43.14967,
        "lng": 23.92448
    },
    {
        "name": "ЛОГИ 9 ООД",
        "lat": 43.59203,
        "lng": 23.81895
    },
    {
        "name": "ХАДЖИЙСКИ ФРУКТ ЕООД",
        "lat": 43.14656,
        "lng": 23.70271
    },
    {
        "name": "ПАВЛИНКА ИВАНОВА - 2014 ООД",
        "lat": 43.14505,
        "lng": 23.92527
    },
    {
        "name": "ПЛАМ Т 88 ЕООД",
        "lat": 43.77247,
        "lng": 23.73142
    },
    {
        "name": "ИВАЛИНА БОСЕВА ЕТ",
        "lat": 43.62587,
        "lng": 23.84225
    },
    {
        "name": "ТРАНСПЛАМ 2015 ЕООД",
        "lat": 43.24751,
        "lng": 23.51871
    },
    {
        "name": "ТАБАК - 2020 ЕООД",
        "lat": 43.22235,
        "lng": 23.54677
    },
    {
        "name": "ШЕЙНОВ ЕООД",
        "lat": 43.20238,
        "lng": 23.54908
    },
    {
        "name": "ПЕТЬО ПЕТРОВ ЕТ",
        "lat": 43.77937,
        "lng": 23.72512
    },
    {
        "name": "ПОТРЕБИТЕЛНА КООПЕРАЦИЯ НАПРЕД КООПЕРАЦИЯ",
        "lat": 43.29822,
        "lng": 23.67661
    },
    {
        "name": "ПОТРЕБИТЕЛНА КООПЕРАЦИЯ НАПРЕД КООПЕРАЦИЯ",
        "lat": 43.20655,
        "lng": 23.54756
    },
    {
        "name": "ЕКИП 2018 ООД",
        "lat": 43.2058,
        "lng": 23.55358
    },
    {
        "name": "ТИБЕА - М ЕООД",
        "lat": 43.22398,
        "lng": 23.54111
    },
    {
        "name": "ОГНЯН ПЕТРОВ - СОНОМА ЕТ",
        "lat": 43.08295,
        "lng": 23.57461
    },
    {
        "name": "ГЕРИ И ЕЛИ ООД",
        "lat": 43.20613,
        "lng": 23.54718
    },
    {
        "name": "ГЕРИ 1010 ЕООД",
        "lat": 43.20613,
        "lng": 23.54718
    },
    {
        "name": "ГЕРИ 1010 ЕООД",
        "lat": 43.20613,
        "lng": 23.54718
    },
    {
        "name": "ИЦКО 23 ЕООД",
        "lat": 43.20402,
        "lng": 23.55749
    },
    {
        "name": "ТЕОДОРА - 96 ЕООД",
        "lat": 44.09756,
        "lng": 22.76002
    },
    {
        "name": "МОЯТ МАГАЗИН ЕООД",
        "lat": 43.73871,
        "lng": 23.16535
    },
    {
        "name": "МОЯТ МАГАЗИН ЕООД",
        "lat": 43.73871,
        "lng": 23.16535
    },
    {
        "name": "ПРОМСТРОЙ 70ЕООД",
        "lat": 43.62587,
        "lng": 23.84225
    },
    {
        "name": "ДИМАЙС ЕООД",
        "lat": 43.70995,
        "lng": 23.82837
    },
    {
        "name": "ПРИ НАС- С.И.Е.2019 ЕООД",
        "lat": 43.14251,
        "lng": 23.92549
    },
    {
        "name": "ЕКО ТОПЛИНА 18 ЕООД",
        "lat": 44.03109,
        "lng": 22.83411
    },
    {
        "name": "ЕКО ТОПЛИНА 18 ООД",
        "lat": 43.96145,
        "lng": 22.84872
    },
    {
        "name": "КАРИШАМ ЕООД",
        "lat": 43.98236,
        "lng": 22.86752
    },
    {
        "name": "МАРТЕЛ ЕООД",
        "lat": 43.80999,
        "lng": 23.23962
    },
    {
        "name": "ФЕМИЛИ ШОП 77 ЕООД",
        "lat": 43.73667,
        "lng": 23.96452
    },
    {
        "name": "КАПРИКОРН 97 ЕООД",
        "lat": 41.92195,
        "lng": 25.55127
    },
    {
        "name": "РОСИ - РОСИЦА БЪРЗАНОВА ЕТ",
        "lat": 42.25832,
        "lng": 23.47232
    },
    {
        "name": "ХИТО 21 ЕООД",
        "lat": 42.33085,
        "lng": 23.5633
    },
    {
        "name": "В ЕНД П ГЕРИНСКИ ЕООД",
        "lat": 42.4337598309978,
        "lng": 23.8234538957476
    },
    {
        "name": "ЛАЙТ БОКС ЕООД",
        "lat": 42.5558,
        "lng": 23.69821
    },
    {
        "name": "ЛАЙТ БОКС ЕООД",
        "lat": 42.5558,
        "lng": 23.69821
    },
    {
        "name": "ТАШЕВ ГРУП ЕООД",
        "lat": 42.31109,
        "lng": 23.76587
    },
    {
        "name": "МАРТИНЕЛИ 2020 ООД",
        "lat": 43.99508,
        "lng": 22.86688
    },
    {
        "name": "ПОБЕДА-ТИНИН ЕООД",
        "lat": 42.59672,
        "lng": 22.94637
    },
    {
        "name": "ДИМАНА 63 ЕООД",
        "lat": 43.80059,
        "lng": 23.3627
    },
    {
        "name": "ЖАНЕТА - А -  АСЕН АРАНГЕЛОВ ЕТ",
        "lat": 42.36553,
        "lng": 23.55824
    },
    {
        "name": "ДЕВА 89 ЕООД",
        "lat": 41.92157,
        "lng": 25.55116
    },
    {
        "name": "КАН РАФАИЛОВИ ЕООД",
        "lat": 43.83073,
        "lng": 23.22702
    },
    {
        "name": "ДИМИТЪР НОВАКОВ 2019 ЕООД",
        "lat": 42.4308727280867,
        "lng": 23.8001622632145
    },
    {
        "name": "СВЕМИ КОМЕРС ООД",
        "lat": 43.82791,
        "lng": 23.23581
    },
    {
        "name": "КАЙМАК - ЦВЕТАНКА КАЙМАКЧИЙСКА ЕТ",
        "lat": 42.59942,
        "lng": 23.5941
    },
    {
        "name": "ИЛИАНА-ЙОРДАНКА ДАМЯНОВА ЕТ",
        "lat": 42.31092,
        "lng": 23.76582
    },
    {
        "name": "ПЕТЬО ИВАНОВ ЕТ",
        "lat": 42.90617,
        "lng": 23.79026
    },
    {
        "name": "ПЕНКА ДАНЧЕВА-ЕНЧО ЕНЧЕВ ЕТ",
        "lat": 42.83656,
        "lng": 24.00001
    },
    {
        "name": "ПЕНКА ДАНЧЕВА-ЕНЧО ЕНЧЕВ ЕТ",
        "lat": 42.83316,
        "lng": 23.9956
    },
    {
        "name": "ДАНИ-ДАФИНКА ТОМОВА ЕТ",
        "lat": 42.85182,
        "lng": 24.00962
    },
    {
        "name": "ДАНИ-ДАФИНКА ТОМОВА ЕТ",
        "lat": 42.84222,
        "lng": 24.00401
    },
    {
        "name": "ХУБАВИ НЕЩА 2008 ЕООД",
        "lat": 42.83309,
        "lng": 23.99529
    },
    {
        "name": "ХУБАВИ НЕЩА 2008 ЕООД",
        "lat": 42.82996,
        "lng": 23.9931
    },
    {
        "name": "МАРТИН-ВЕНЕТА МАРКОВА ЕТ",
        "lat": 42.87806,
        "lng": 23.98735
    },
    {
        "name": "СОНИ ТРЕЙД-СВЕТОСЛАВ ГАРВАНСКИ ЕТ",
        "lat": 42.83187,
        "lng": 23.98063
    },
    {
        "name": "РПК ЕТРОПОЛЕ",
        "lat": 42.90014,
        "lng": 24.03965
    },
    {
        "name": "КООПЕРАЦИЯ НАПРЕД",
        "lat": 42.97634,
        "lng": 23.73174
    },
    {
        "name": "КООПЕРАЦИЯ НАПРЕД",
        "lat": 42.97585,
        "lng": 23.6886
    },
    {
        "name": "ДИНТ - 2000 ЕООД",
        "lat": 42.89871,
        "lng": 23.91481
    },
    {
        "name": "ДИНТ - 2000 ЕООД",
        "lat": 42.89898,
        "lng": 23.91439
    },
    {
        "name": "МАСТЕР-СОЛ ООД",
        "lat": 42.91399,
        "lng": 23.83948
    },
    {
        "name": "СВ.ВРЪБЧЕВА - СВЕТЛА СТОЯНОВА ЕТ",
        "lat": 42.9174,
        "lng": 23.84226
    },
    {
        "name": "РУМОЙЛ ООД",
        "lat": 42.90831,
        "lng": 23.78452
    },
    {
        "name": "РУМОЙЛ ООД",
        "lat": 42.90751,
        "lng": 23.8799
    },
    {
        "name": "РУМОЙЛ ООД",
        "lat": 42.85435,
        "lng": 24.01036
    },
    {
        "name": "САШИ - САШКА ЛАЗАРОВА ЕТ",
        "lat": 42.84284,
        "lng": 24.00614
    },
    {
        "name": "ДИМИТРИНА БАРБУШЕВА ЕТ",
        "lat": 42.89987,
        "lng": 23.79533
    },
    {
        "name": "ХРИСТО СТЕФАНОВ 70 ЕООД",
        "lat": 42.90032,
        "lng": 23.79149
    },
    {
        "name": "ХРИСТО СТЕФАНОВ 70 ЕООД",
        "lat": 42.90585,
        "lng": 23.78604
    },
    {
        "name": "ММД 008 ЕООД",
        "lat": 42.9203,
        "lng": 23.83897
    },
    {
        "name": "ЕВРО ИНВЕСТ 2013 ЕООД",
        "lat": 42.91506,
        "lng": 23.79656
    },
    {
        "name": "ВИК - 08 ЕООД",
        "lat": 42.90613,
        "lng": 23.80196
    },
    {
        "name": "ДЕСИЛДА - ВЕЛИЧКА КОСТАДИНОВА ЕТ",
        "lat": 42.84286,
        "lng": 24.00621
    },
    {
        "name": "САКСА ООД",
        "lat": 42.89884,
        "lng": 23.90768
    },
    {
        "name": "ЕЛИ МН ЕООД",
        "lat": 42.90894,
        "lng": 23.78934
    },
    {
        "name": "ДЕЯ Т. В. ЕООД",
        "lat": 42.83176,
        "lng": 23.99761
    },
    {
        "name": "ЕЛАН 73 ЕООД",
        "lat": 42.91762,
        "lng": 23.84203
    },
    {
        "name": "ДИА 69 ЕООД",
        "lat": 42.8928,
        "lng": 23.91862
    },
    {
        "name": "ДИА 69 ЕООД",
        "lat": 42.89754,
        "lng": 23.91096
    },
    {
        "name": "РИС - 21 ЕООД",
        "lat": 42.84286,
        "lng": 24.00621
    },
    {
        "name": "ТЕМЕНУЖКА НИКОЛОВА ВАСИЛЕВА ЕТ",
        "lat": 42.83403,
        "lng": 23.99795
    },
    {
        "name": "НИКИ - ГиП ЕООД",
        "lat": 42.89155,
        "lng": 23.74962
    },
    {
        "name": "ДЖАФИ -19 ЕООД",
        "lat": 42.83822,
        "lng": 24.00092
    },
    {
        "name": "ПЕРСИ - НЕЛИ ХРИСТОВА ЕТ",
        "lat": 42.83162,
        "lng": 23.99455
    },
    {
        "name": "ГЕА 19 ЕООД",
        "lat": 42.90749,
        "lng": 23.7973
    },
    {
        "name": "ТЕМЕНУЖКА - ТЕМЕНУЖКА СТОЯНОВА ЕТ",
        "lat": 42.83317,
        "lng": 23.9991
    },
    {
        "name": "МИХАЙЛ 1992 ЕООД",
        "lat": 42.71397,
        "lng": 23.85598
    },
    {
        "name": "РОЗА-11 ЕООД",
        "lat": 42.444,
        "lng": 23.81495
    },
    {
        "name": "ГАБРИЕЛ ПАВЛОВ 2014 ЕООД",
        "lat": 42.90425,
        "lng": 23.80024
    },
    {
        "name": "ЧЕРНОТО ЛАЛЕ 2015 ООД",
        "lat": 42.89188,
        "lng": 23.75016
    },
    {
        "name": "АВАН ТРЕЙД ЕООД",
        "lat": 43.22035,
        "lng": 23.56025
    },
    {
        "name": "ЦАНКОВ 72-КОМЕРС ЕООД",
        "lat": 43.82271,
        "lng": 23.24084
    },
    {
        "name": "АТРИЯ 88 ООД",
        "lat": 42.33766,
        "lng": 23.54638
    },
    {
        "name": "ЕЛЕНА-3- ИВАН КМЕТСКИ ЕООД",
        "lat": 42.2583,
        "lng": 23.47234
    },
    {
        "name": "КРИСТОФЪР 98 ЕООД",
        "lat": 43.62723,
        "lng": 22.68467
    },
    {
        "name": "КАПРИЗ-ВИКТОР БАРАНСКИ ЕТ",
        "lat": 42.3381573448482,
        "lng": 23.5463020494071
    },
    {
        "name": "КООЛПЕРАЦИЯ ПОТРЕБИТЕЛНА КООПЕРАЦИЯ ОРАЧ",
        "lat": 43.42693,
        "lng": 23.75491
    },
    {
        "name": "ЛЮАС-ИВАНОВИ ЕООД",
        "lat": 43.98116,
        "lng": 22.87329
    },
    {
        "name": "ВИКТОРИЯ 1991 ЕООД",
        "lat": 43.69246,
        "lng": 23.81221
    },
    {
        "name": "СИВ - ИВАНКА ВЪЛЕВА ЕТ",
        "lat": 42.6979321566959,
        "lng": 23.9954999637359
    },
    {
        "name": "ДУДОВИ ЕООД",
        "lat": 42.91166,
        "lng": 23.81442
    },
    {
        "name": "ВАНГЕЛОВ ОЙЛ ООД",
        "lat": 43.17432,
        "lng": 23.61013
    },
    {
        "name": "ВАНГЕЛОВ ОЙЛ ООД",
        "lat": 43.17432,
        "lng": 23.61013
    },
    {
        "name": "АНГЕЛОВ КОМЕРС-2017 ЕООД",
        "lat": 43.99117,
        "lng": 22.87531
    },
    {
        "name": "МиМ МИТКО МЕТОДИЕВ ЕТ",
        "lat": 43.99483,
        "lng": 22.86605
    },
    {
        "name": "АВИЗ ГРУП",
        "lat": 43.14264,
        "lng": 23.7143
    },
    {
        "name": "КАРАМИШЕВ ЕООД",
        "lat": 42.2700768709516,
        "lng": 23.8280384615063
    },
    {
        "name": "ФИРМАТА 83 ЕООД",
        "lat": 43.81849,
        "lng": 23.23829
    },
    {
        "name": "СТИВ 84 ЕООД",
        "lat": 42.31148,
        "lng": 23.75906
    },
    {
        "name": "КОМЕ ООД",
        "lat": 42.6947989373714,
        "lng": 23.2836525575828
    },
    {
        "name": "КОМЕ ООД",
        "lat": 42.6647678722907,
        "lng": 23.2931100265693
    },
    {
        "name": "КОМЕ ООД",
        "lat": 42.6668308771353,
        "lng": 23.3002715246391
    },
    {
        "name": "КОМЕ ООД",
        "lat": 42.7268824092286,
        "lng": 23.3014516966056
    },
    {
        "name": "КОМЕ ООД",
        "lat": 42.4354877711133,
        "lng": 23.8177983532814
    },
    {
        "name": "КОМЕ ООД",
        "lat": 42.8135481040165,
        "lng": 23.2137567366439
    },
    {
        "name": "КОМЕ ООД",
        "lat": 42.6027638626757,
        "lng": 23.4954171972185
    },
    {
        "name": "КОМЕ ООД",
        "lat": 42.852962,
        "lng": 23.037259
    },
    {
        "name": "КОМЕ ООД",
        "lat": 42.6708486116297,
        "lng": 23.3634921688986
    },
    {
        "name": "КОМЕ ООД",
        "lat": 42.6705334539982,
        "lng": 23.3632990498496
    },
    {
        "name": "КОМЕ ООД",
        "lat": 42.7058944720395,
        "lng": 23.292823433876
    },
    {
        "name": "КОМЕ ООД",
        "lat": 42.685770669595,
        "lng": 23.3619600534439
    },
    {
        "name": "КОМЕ ООД",
        "lat": 42.7183038870345,
        "lng": 23.2458453499193
    },
    {
        "name": "КОМЕ ООД",
        "lat": 42.6681055464329,
        "lng": 23.3195022348656
    },
    {
        "name": "КОМЕ ООД",
        "lat": 42.660935,
        "lng": 23.46092
    },
    {
        "name": "КОМЕ ООД",
        "lat": 42.8007694814318,
        "lng": 23.2266046540451
    },
    {
        "name": "КОМЕ ООД",
        "lat": 42.8007694814318,
        "lng": 23.2266046540451
    },
    {
        "name": "КОМЕ ООД",
        "lat": 42.9155341471361,
        "lng": 22.9416042566299
    },
    {
        "name": "КОМЕ ООД",
        "lat": 42.796226,
        "lng": 23.233891
    },
    {
        "name": "345 ООД",
        "lat": 42.69828,
        "lng": 23.32604
    },
    {
        "name": "345 ООД",
        "lat": 42.6824087595281,
        "lng": 23.3235991001129
    },
    {
        "name": "345 ООД",
        "lat": 42.7118481271934,
        "lng": 23.3123016357421
    },
    {
        "name": "345 ООД",
        "lat": 42.6286068653666,
        "lng": 23.3749312162399
    },
    {
        "name": "345 ООД",
        "lat": 42.7084337646523,
        "lng": 23.2891085743904
    },
    {
        "name": "345 ООД",
        "lat": 42.6723303764765,
        "lng": 23.2723098993301
    },
    {
        "name": "345 ООД",
        "lat": 42.6762122371764,
        "lng": 23.3608818054199
    },
    {
        "name": "345 ООД",
        "lat": 42.6643200475608,
        "lng": 23.2841438055038
    },
    {
        "name": "345 ООД",
        "lat": 42.6891007504425,
        "lng": 23.3056765794754
    },
    {
        "name": "345 ООД",
        "lat": 42.6249628,
        "lng": 23.4060766999999
    },
    {
        "name": "345 ООД",
        "lat": 42.6908029506705,
        "lng": 23.3522021770477
    },
    {
        "name": "345 ООД",
        "lat": 42.689903946318,
        "lng": 23.3639502525329
    },
    {
        "name": "345 ООД",
        "lat": 42.6770436,
        "lng": 23.3336497999999
    },
    {
        "name": "345 ООД",
        "lat": 42.6430864920491,
        "lng": 23.2828670740127
    },
    {
        "name": "НИКОН-НК ЕООД",
        "lat": 42.682525,
        "lng": 23.327495
    },
    {
        "name": "НИКОН-НК ЕООД",
        "lat": 42.682525,
        "lng": 23.327495
    },
    {
        "name": "НИКОН-НК ЕООД",
        "lat": 42.6605687646966,
        "lng": 23.3004677295684
    },
    {
        "name": "НИКОН-НК ЕООД",
        "lat": 42.6618,
        "lng": 23.31427
    },
    {
        "name": "НИКОН-НК ЕООД",
        "lat": 42.6797064335736,
        "lng": 23.2924801111221
    },
    {
        "name": "НИКОН-НК ЕООД",
        "lat": 42.6383881775316,
        "lng": 23.3840078115463
    },
    {
        "name": "НИКОН-НК ЕООД",
        "lat": 42.7085173839376,
        "lng": 23.3175829052925
    },
    {
        "name": "ЕКСПРЕС ГАРАНТ НК ЕООД",
        "lat": 42.709963979743,
        "lng": 23.3100110292434
    },
    {
        "name": "ЕКСПРЕС ГАРАНТ НК ЕООД",
        "lat": 42.6946963743568,
        "lng": 23.3112877607345
    },
    {
        "name": "ЕКСПРЕС ГАРАНТ НК ЕООД",
        "lat": 42.668509324805,
        "lng": 23.3029890060424
    },
    {
        "name": "БУРОВ И СИН ООД",
        "lat": 42.71235825453,
        "lng": 23.3008023634765
    },
    {
        "name": "БУРОВ И СИН ООД",
        "lat": 42.68186,
        "lng": 23.30036
    },
    {
        "name": "БУРОВ И СИН ООД",
        "lat": 42.66971,
        "lng": 23.32624
    },
    {
        "name": "БУРОВ И СИН ООД",
        "lat": 42.70195,
        "lng": 23.28865
    },
    {
        "name": "БУРОВ И СИН ООД",
        "lat": 42.674714435511,
        "lng": 23.2599834041309
    },
    {
        "name": "КИРКОВ 2000 ООД",
        "lat": 42.7044887476626,
        "lng": 23.2897376558196
    },
    {
        "name": "КИРКОВ 2000 ООД",
        "lat": 42.6605,
        "lng": 23.39696
    },
    {
        "name": "ХИТ ХИПЕРМАРКЕТ ЕООД",
        "lat": 42.6928429308766,
        "lng": 23.3163295066062
    },
    {
        "name": "ХИТ ХИПЕРМАРКЕТ ЕООД",
        "lat": 42.6379580952538,
        "lng": 23.3750377837384
    },
    {
        "name": "БРИЛЯНТ 24 ЕООД",
        "lat": 42.7015623040391,
        "lng": 23.292506529541
    },
    {
        "name": "БРИЛЯНТ 24 ЕООД",
        "lat": 42.6894992915379,
        "lng": 23.2545184716582
    },
    {
        "name": "БРИЛЯНТ - 33 ЕООД",
        "lat": 42.7275424699191,
        "lng": 23.309804095478
    },
    {
        "name": "БРИЛЯНТ - 33 ЕООД",
        "lat": 42.70415,
        "lng": 23.3287
    },
    {
        "name": "БРИЛЯНТ - 34 ЕООД",
        "lat": 42.8125692640797,
        "lng": 23.2145156711339
    },
    {
        "name": "БРИЛЯНТ - 34 ЕООД",
        "lat": 42.72084,
        "lng": 23.53
    },
    {
        "name": "БРИЛЯНТ - 34 ЕООД",
        "lat": 42.73217,
        "lng": 23.48008
    },
    {
        "name": "БРИЛЯНТ  35 ЕООД",
        "lat": 42.70377,
        "lng": 23.31725
    },
    {
        "name": "ВАСИЛКА БГ ЕООД",
        "lat": 42.73909,
        "lng": 23.51197
    },
    {
        "name": "ВАСИЛКА БГ ЕООД",
        "lat": 42.69982,
        "lng": 23.492
    },
    {
        "name": "БМ МАРКЕТ ЛЮЛИН ЕООД",
        "lat": 42.7150595690048,
        "lng": 23.2661764615158
    },
    {
        "name": "ФОРС 1990 ЕООД",
        "lat": 42.40987,
        "lng": 23.1587
    },
    {
        "name": "ПЕТЪР ЕМИЛОВ 76 ЕООД",
        "lat": 43.19655,
        "lng": 23.56916
    },
    {
        "name": "БИНДЖИНСКА ЕООД",
        "lat": 43.19617,
        "lng": 23.56988
    },
    {
        "name": "ПЕТРОВА ЕООД",
        "lat": 43.19718,
        "lng": 23.56232
    },
    {
        "name": "ПЕТРОВА ЕООД",
        "lat": 43.22499,
        "lng": 23.54604
    },
    {
        "name": "НИКОТИН МТ ЕООД",
        "lat": 43.20489,
        "lng": 23.55302
    },
    {
        "name": "НИКОТИН МТ ЕООД",
        "lat": 43.22244,
        "lng": 23.54661
    },
    {
        "name": "ДАНИЕЛА МАРКОВА-2014  ЕООД",
        "lat": 43.20399,
        "lng": 23.54945
    },
    {
        "name": "АРИВА ТРАНС ЕООД",
        "lat": 43.20443,
        "lng": 23.56243
    },
    {
        "name": "АРИВА ТРАНС ЕООД",
        "lat": 43.20443,
        "lng": 23.56243
    },
    {
        "name": "БОРДО 03 ЕООД",
        "lat": 43.20716,
        "lng": 23.55112
    },
    {
        "name": "СИМ-ТАБАКО ООД",
        "lat": 43.20154,
        "lng": 23.54927
    },
    {
        "name": "СИМ-ТАБАКО 2 ООД",
        "lat": 43.20146,
        "lng": 23.54902
    },
    {
        "name": "НОРДЕС ЕООД",
        "lat": 43.20525,
        "lng": 23.55348
    },
    {
        "name": "БИФОНИК-Н.О.-К.НИКОЛОВ ЕТ",
        "lat": 43.22527,
        "lng": 23.54591
    },
    {
        "name": "ВЕДИ КАР ЕООД",
        "lat": 43.20602,
        "lng": 23.55017
    },
    {
        "name": "ВЕДИ КАР ЕООД",
        "lat": 43.20575,
        "lng": 23.54992
    },
    {
        "name": "ИВАЛИН ПЪРВАНОВ ЕТ",
        "lat": 43.21001,
        "lng": 23.5488
    },
    {
        "name": "СИМФОНИЯ МАРКЕТ ЕООД",
        "lat": 43.20013,
        "lng": 23.55928
    },
    {
        "name": "ПРЕСЛАВ - ЕИ ЕООД",
        "lat": 43.20135,
        "lng": 23.55423
    },
    {
        "name": "ПРЕСЛАВ - ЕИ ЕООД",
        "lat": 43.20213,
        "lng": 23.54893
    },
    {
        "name": "ПРЕСЛАВ - ЕИ ЕООД",
        "lat": 43.20213,
        "lng": 23.54893
    },
    {
        "name": "ФИНЕС ООД",
        "lat": 43.219,
        "lng": 23.54683
    },
    {
        "name": "МЕТАЛ ДИМИТРОВ 59  ЕООД",
        "lat": 43.21493,
        "lng": 23.54648
    },
    {
        "name": "МИНИ ЕЛЕКТРИК-МИШОНИ МИШОНОВ ЕТ",
        "lat": 43.2208,
        "lng": 23.54308
    },
    {
        "name": "МИНИ ЕЛЕКТРИК-МИШОНИ МИШОНОВ ЕТ",
        "lat": 43.16175,
        "lng": 23.64589
    },
    {
        "name": "ИКОНОМОВ ЕООД",
        "lat": 43.22618,
        "lng": 23.55186
    },
    {
        "name": "Н.АЛЕКСИЕВ-65 ЕООД",
        "lat": 43.22021,
        "lng": 23.55497
    },
    {
        "name": "БЕНДЖИ-ИЛИЯН БИНДЖИНСКИ ЕТ",
        "lat": 43.21197,
        "lng": 23.54468
    },
    {
        "name": "НИКОЙЛ-2 ЕООД",
        "lat": 43.19279,
        "lng": 23.57193
    },
    {
        "name": "НИКИ-ЕМ ЕООД",
        "lat": 43.20307,
        "lng": 23.55689
    },
    {
        "name": "НИКОЛАЙ НЕШОВ-НИКИ-77 ЕТ",
        "lat": 43.22028,
        "lng": 23.54604
    },
    {
        "name": "НИКОЛАЙ НЕШОВ-НИКИ-77 ЕТ",
        "lat": 43.21243,
        "lng": 23.55334
    },
    {
        "name": "НИКОЛАЙ НЕШОВ-НИКИ-77 ЕТ",
        "lat": 43.21527,
        "lng": 23.5452
    },
    {
        "name": "РОСИ 91 ЕООД",
        "lat": 43.19275,
        "lng": 23.28496
    },
    {
        "name": "РОСИ 91 ЕООД",
        "lat": 43.19408,
        "lng": 23.28689
    },
    {
        "name": "МЕЧО-ТУРС 2008 ЕООД",
        "lat": 43.23475,
        "lng": 23.13017
    },
    {
        "name": "РОС-ДИ ЕООД",
        "lat": 43.23791,
        "lng": 23.12736
    },
    {
        "name": "ДЖИ ПИ ЕР ООД",
        "lat": 43.40759,
        "lng": 23.22561
    },
    {
        "name": "КАТИ-М-95 ЕООД",
        "lat": 43.40608,
        "lng": 23.21925
    },
    {
        "name": "ЕЛИНА М ЕООД",
        "lat": 43.41257,
        "lng": 23.23293
    },
    {
        "name": "ЗОО ГРУП ООД",
        "lat": 43.41053,
        "lng": 23.22493
    },
    {
        "name": "БИМБО БЕТ ЕООД",
        "lat": 43.39917,
        "lng": 23.23615
    },
    {
        "name": "ЛАРГО ГРУП ООД",
        "lat": 43.40677,
        "lng": 23.22424
    },
    {
        "name": "ЛАРГО ГРУП ООД",
        "lat": 43.42503,
        "lng": 23.22294
    },
    {
        "name": "ЕМА ЕМИЛИЯ ЛАЗАРОВА ЕТ",
        "lat": 43.4101,
        "lng": 23.22253
    },
    {
        "name": "МАРИЕМ ООД",
        "lat": 43.40508,
        "lng": 23.21453
    },
    {
        "name": "МОНТДРИНКС ООД",
        "lat": 43.41257,
        "lng": 23.23293
    },
    {
        "name": "АН МАРИ 2016 ЕООД",
        "lat": 43.41173,
        "lng": 23.22311
    },
    {
        "name": "АН МАРИ 2016 ЕООД",
        "lat": 43.41173,
        "lng": 23.22311
    },
    {
        "name": "ИЛИЕВ 2015 ЕООД",
        "lat": 43.19884,
        "lng": 23.54667
    },
    {
        "name": "ОРЕОС ВЕЛИЧКА ЯНЕВА ЕТ",
        "lat": 43.23714,
        "lng": 23.12339
    },
    {
        "name": "СЪНИ ОЙЛ АД",
        "lat": 44.0035,
        "lng": 22.85008
    },
    {
        "name": "АЛ ПИ 14 ЕООД",
        "lat": 43.40659,
        "lng": 23.21918
    },
    {
        "name": "ТАНЯ ПЕТКОВА - ИВА 89 ЕТ",
        "lat": 43.2159,
        "lng": 23.54194
    },
    {
        "name": "АНГЕЛ ПЕТКОВ - ЗГОРИГРАД ЕТ",
        "lat": 43.2078,
        "lng": 23.55684
    },
    {
        "name": "АНГЕЛ ПЕТКОВА 2014 ЕООД",
        "lat": 43.22297,
        "lng": 23.55425
    },
    {
        "name": "ИЛИ ЦВЕТ 74",
        "lat": 43.19887,
        "lng": 23.56012
    },
    {
        "name": "СТЕЛИ - СЕРГЕЙ СТАНЕВ ЕТ",
        "lat": 43.19452,
        "lng": 23.56854
    },
    {
        "name": "КРЕМЕНА ЕООД",
        "lat": 43.20609,
        "lng": 23.56385
    },
    {
        "name": "ИВАЙЛО ИВАНЧЕВ ЕТ",
        "lat": 43.20114,
        "lng": 23.55472
    },
    {
        "name": "М Г ЕООД",
        "lat": 43.42012,
        "lng": 23.21978
    },
    {
        "name": "ПОЛИ ПП ООД",
        "lat": 43.2178,
        "lng": 23.55204
    },
    {
        "name": "ПЛАМЕН ДИКОВ ЕТ",
        "lat": 43.21005,
        "lng": 23.553
    },
    {
        "name": "КАМЕНОВИ 2011 ООД",
        "lat": 43.7799,
        "lng": 23.72458
    },
    {
        "name": "КАМЕНОВИ 2011 ООД",
        "lat": 43.7799,
        "lng": 23.72458
    },
    {
        "name": "НАДЕЖДА 991 ЕООД",
        "lat": 42.43813,
        "lng": 23.81441
    },
    {
        "name": "НАДЕЖДА 991 ЕООД",
        "lat": 42.44948,
        "lng": 23.75565
    },
    {
        "name": "ПУМА 02 ЕООД",
        "lat": 42.42863,
        "lng": 23.82661
    },
    {
        "name": "ОРБИС ЕООД",
        "lat": 42.3414237980935,
        "lng": 23.5525075346231
    },
    {
        "name": "СТИ И ВИ ЕООД",
        "lat": 42.3083954358957,
        "lng": 23.850050009787
    },
    {
        "name": "НЕЙКОВ ГРУП ООД",
        "lat": 42.30768,
        "lng": 23.85827
    },
    {
        "name": "ВАСИЛЕВ - ЛЪЧЕЗАР ВАСИЛЕВ ЕТ",
        "lat": 42.33089,
        "lng": 23.56487
    },
    {
        "name": "ЙОВИЧИН - ГОГО ЕООД",
        "lat": 42.3132689049175,
        "lng": 23.513969220221
    },
    {
        "name": "ЛОРА БОРИСОВА - ТРЕЙД  EООД",
        "lat": 43.21347,
        "lng": 23.55313
    },
    {
        "name": "ФЛОРА 04 ЕООД",
        "lat": 43.20709,
        "lng": 23.55341
    },
    {
        "name": "ТВ ТРАЙКОВИ ООД",
        "lat": 43.21706,
        "lng": 23.55549
    },
    {
        "name": "ШАМПИОН 62 ЕООД",
        "lat": 43.20256,
        "lng": 23.55615
    },
    {
        "name": "ИВАЙЛО ЗАРЕВ ТОП ШОП ЕТ",
        "lat": 43.20222,
        "lng": 23.55019
    },
    {
        "name": "ДЕКОВ 63 ООД",
        "lat": 43.22164,
        "lng": 23.54203
    },
    {
        "name": "ДИМАР КОМЕРС",
        "lat": 43.20009,
        "lng": 23.55975
    },
    {
        "name": "ПНП-2012 ЕООД",
        "lat": 43.19584,
        "lng": 23.56409
    },
    {
        "name": "МИХОВ И ДЪЩЕРИ ЕООД",
        "lat": 43.18013,
        "lng": 23.51618
    },
    {
        "name": "КЕШ СТОЯНЧЕВИ ООД",
        "lat": 42.30828,
        "lng": 23.85888
    },
    {
        "name": "КЕШ СТОЯНЧЕВИ ООД",
        "lat": 42.30841,
        "lng": 23.85866
    },
    {
        "name": "ММ МАРИЯНА КОЛАРСКА ЕТ",
        "lat": 42.44997,
        "lng": 23.75469
    },
    {
        "name": "ДАНИТ 87 ЕООД",
        "lat": 42.59673,
        "lng": 23.63111
    },
    {
        "name": "ГЕОРГИ ПЕЙЧИНОВ-ГК",
        "lat": 42.3492,
        "lng": 23.57266
    },
    {
        "name": "МЕТАЛ СТРОЙ 05 ЕООД",
        "lat": 43.21397,
        "lng": 23.61161
    },
    {
        "name": "ЮНИВЪРС ТРЕЙД ООД",
        "lat": 43.22132,
        "lng": 23.55714
    },
    {
        "name": "ВВВ 9800 ООД",
        "lat": 42.3082662550725,
        "lng": 23.7644546851515
    },
    {
        "name": "ДЕНИЗА В -ЕООД",
        "lat": 43.22199,
        "lng": 23.54727
    },
    {
        "name": "ДМВ-МАРИЯ АНГЕЛОВА ЕТ",
        "lat": 43.81614,
        "lng": 23.23374
    },
    {
        "name": "БОБО - М ООД",
        "lat": 42.30571,
        "lng": 23.86661
    },
    {
        "name": "ЛТД РЕЗОЛТ ИНВЕСТ ООД",
        "lat": 42.26540698877,
        "lng": 23.605702444911
    },
    {
        "name": "ПАРКМАРТ РИТЕЙЛ ЕООД",
        "lat": 42.2655516407215,
        "lng": 23.6057322844862
    },
    {
        "name": "МЕДПЕТРОЛ ООД",
        "lat": 43.16176,
        "lng": 23.64026
    },
    {
        "name": "ИВПО 93 ЕООД",
        "lat": 42.33717,
        "lng": 23.55558
    },
    {
        "name": "ГОБИ 2021 ЕООД",
        "lat": 42.3125,
        "lng": 23.7526
    },
    {
        "name": "МАРЛИН ТРЕЙД ЕООД",
        "lat": 43.20716,
        "lng": 23.55967
    },
    {
        "name": "ДАМЯНОВИ - 54 ООД",
        "lat": 42.33717,
        "lng": 23.5498
    },
    {
        "name": "ДАМЯНОВИ - 54 ООД",
        "lat": 42.33717,
        "lng": 23.5498
    },
    {
        "name": "ХРИС-КО 2020 ЕООД",
        "lat": 42.43588,
        "lng": 23.81735
    },
    {
        "name": "ДИВАЛ 21 ЕООД",
        "lat": 44.09866,
        "lng": 22.74056
    },
    {
        "name": "СИС ТИМ ООД",
        "lat": 42.90922,
        "lng": 23.789225
    },
    {
        "name": "ВЕРОНИКА 70-ВЕРА ЙОРДАНОВА",
        "lat": 42.62869,
        "lng": 23.58391
    },
    {
        "name": "ВЕРОНИКА 70-ВЕРА ЙОРДАНОВА ЕТ",
        "lat": 42.60466,
        "lng": 23.59844
    },
    {
        "name": "МИЦЕВ 2009 ЕООД",
        "lat": 43.42829,
        "lng": 23.75803
    },
    {
        "name": "МИЦЕВ 2009 ЕООД",
        "lat": 43.42829,
        "lng": 23.75803
    },
    {
        "name": "ВАЛТЕР 21 ООД",
        "lat": 42.60641,
        "lng": 23.59555
    },
    {
        "name": "Идеа 2009-Попови ООД",
        "lat": 42.71398,
        "lng": 23.85605
    },
    {
        "name": "САВА 21 ЕООД",
        "lat": 43.98849,
        "lng": 22.87519
    },
    {
        "name": "СЛАВ МТ ЕООД",
        "lat": 43.22219,
        "lng": 23.55278
    },
    {
        "name": "МИСИА ВЪЗМОЖНА ЕООД",
        "lat": 43.20262,
        "lng": 23.55639
    },
    {
        "name": "АР ВИ ПИ КРИЕЙТИВ ЕООД",
        "lat": 42.33703,
        "lng": 23.5558
    },
    {
        "name": "КРИСТЕНА ЕООД",
        "lat": 43.22401,
        "lng": 23.5545
    },
    {
        "name": "ЕДИБЕТ ЕООД",
        "lat": 44.0036,
        "lng": 22.87596
    },
    {
        "name": "ТИНЧЕВИ-АНИ ЕООД",
        "lat": 43.14778,
        "lng": 23.92523
    },
    {
        "name": "ТИМ ТРЕЙДИНГ 76 ООД",
        "lat": 42.7607320868664,
        "lng": 23.2019102945923
    },
    {
        "name": "СТИВ 274 ЕООД",
        "lat": 42.3111175935466,
        "lng": 23.8615312054753
    },
    {
        "name": "СТИВ-274 ООД",
        "lat": 42.30857,
        "lng": 23.85822
    },
    {
        "name": "ЛОРА ВТ 92 ЕООД",
        "lat": 43.99528,
        "lng": 22.87042
    },
    {
        "name": "ЕСТРЕЛА-БИ ООД",
        "lat": 43.14709,
        "lng": 23.72068
    },
    {
        "name": "ЕСТРЕЛА-БИ ООД",
        "lat": 43.14709,
        "lng": 23.72068
    },
    {
        "name": "ММ-ХРИСТО ХРИСТОВ ЕООД",
        "lat": 43.14235,
        "lng": 23.92565
    },
    {
        "name": "СМАК 21 ЕООД",
        "lat": 42.44814,
        "lng": 23.75995
    },
    {
        "name": "ХРИСТО П. ХРИСТОВ-СИНЕВА ХАД ЕТ",
        "lat": 42.69604,
        "lng": 23.23351
    },
    {
        "name": "ЧИЧО СКРУЧ 2021",
        "lat": 43.72706,
        "lng": 23.96441
    },
    {
        "name": "БЕ ГЕ ПЕЙ ЕООД",
        "lat": 43.20615,
        "lng": 23.5598
    },
    {
        "name": "НИКЕЯ ДЕИ ЕООД",
        "lat": 43.81489,
        "lng": 23.23234
    },
    {
        "name": "Е И ТА ЕООД",
        "lat": 43.73606,
        "lng": 23.95931
    },
    {
        "name": "ТИБО-2014 ЕООД",
        "lat": 43.77721,
        "lng": 23.72868
    },
    {
        "name": "АЛЕКС-Ц 99 ЕООД",
        "lat": 43.99603,
        "lng": 22.87027
    },
    {
        "name": "СИМО - 2011 ПЕТЯ ИВАНОВА ЕООД",
        "lat": 43.6757,
        "lng": 23.99409
    },
    {
        "name": "МИМИ-СИСИ 12 ЕООД",
        "lat": 43.72821,
        "lng": 23.9682
    },
    {
        "name": "ФРУКТ-Н ЛОГИСТИК ЕООД",
        "lat": 43.98468,
        "lng": 22.86414
    },
    {
        "name": "ДЖУМПИ-72 ЕООД",
        "lat": 43.81783,
        "lng": 23.23758
    },
    {
        "name": "ТУШИНОВИ ЕООД",
        "lat": 43.55941,
        "lng": 23.86734
    },
    {
        "name": "ВЕСЕЛИНА -В.МАКШУТОВА ЕТ",
        "lat": 43.729,
        "lng": 23.95392
    },
    {
        "name": "ФАСТ ФУУД 2020 ООД",
        "lat": 43.20401,
        "lng": 23.54939
    },
    {
        "name": "МОНИКА КОСТЕНСКА ЕООД",
        "lat": 43.56066,
        "lng": 23.86429
    },
    {
        "name": "ДЕСИ 07 ЕООД",
        "lat": 43.56066,
        "lng": 23.86429
    },
    {
        "name": "ЕЛЕНИАА-ЕЛЕНА ЕМИЛОВА ЕООД",
        "lat": 43.62585,
        "lng": 23.84215
    },
    {
        "name": "ХРИСИ Ц И М ЕООД",
        "lat": 43.28708,
        "lng": 23.35757
    },
    {
        "name": "ЕМАНУЕЛА ИВАНОВА - ГЕЛЕМА ЕТ",
        "lat": 42.8254378619574,
        "lng": 23.3526494354009
    },
    {
        "name": "СИЛ МАР 2006 ЕООД",
        "lat": 42.7760877458041,
        "lng": 23.2463558390736
    },
    {
        "name": "МАРКОВ 98 ЕООД",
        "lat": 43.62786,
        "lng": 22.6822
    },
    {
        "name": "ОХРАНА 5+ ЕООД",
        "lat": 43.22195,
        "lng": 23.55289
    },
    {
        "name": "ПЛАМЕН КАЛЕЕВ ЕТ",
        "lat": 43.51768,
        "lng": 23.7144
    },
    {
        "name": "БОДИ-БАС-БОЖИДАР СТОЯНОВ С-ИЕ СД",
        "lat": 42.5976118681495,
        "lng": 22.9551972882461
    },
    {
        "name": "ПЕТРОЛ-ЕЛИТ ООД",
        "lat": 43.71195,
        "lng": 23.10738
    },
    {
        "name": "ЦВЕТЕ 2010 ЕООД",
        "lat": 43.8127,
        "lng": 23.51179
    },
    {
        "name": "ПЕПИ-ПРАВЕЦ ЕООД",
        "lat": 42.89734,
        "lng": 23.91128
    },
    {
        "name": "ДЕЙЗИ-ВД ЕООД",
        "lat": 43.99345,
        "lng": 22.88084
    },
    {
        "name": "ДАРИА-2012 ЕООД",
        "lat": 42.55652,
        "lng": 23.71049
    },
    {
        "name": "АТВ ВН ООД",
        "lat": 44.00975,
        "lng": 22.8935
    },
    {
        "name": "ИЗИ МАРКЕТ 21 ЕООД",
        "lat": 43.20413,
        "lng": 23.54486
    },
    {
        "name": "МС-ПЛАМИ ЕООД",
        "lat": 43.71893,
        "lng": 23.13468
    },
    {
        "name": "ИВАНОВИ ГРУП 2020 ЕООД",
        "lat": 43.20364,
        "lng": 23.54672
    },
    {
        "name": "СЕЙЛАН-ГОШО МАРИНОВ ЕТ",
        "lat": 43.67366,
        "lng": 24.00157
    },
    {
        "name": "ЦЗМ ЕООД",
        "lat": 42.8203376659807,
        "lng": 23.2819202542305
    },
    {
        "name": "БАЛДИМАР ООД",
        "lat": 42.61731,
        "lng": 23.08748
    },
    {
        "name": "ЕЛ СТРОЙ ИНВЕСТ ГРУП ЕООД",
        "lat": 43.99018,
        "lng": 22.85562
    },
    {
        "name": "КОРАЛ 78 ЕООД",
        "lat": 43.98948,
        "lng": 22.86873
    },
    {
        "name": "М И М МАРИЯ ЛАЗАРОВА ЕООД",
        "lat": 43.22253,
        "lng": 23.54722
    },
    {
        "name": "ДЕНИСТО ГРУП ООД",
        "lat": 42.80980617616,
        "lng": 23.3762612566351
    },
    {
        "name": "ВАЛЕНТИН БЛАГОЕВ  ЕТ",
        "lat": 42.55962,
        "lng": 23.71022
    },
    {
        "name": "СТЕМИ - 2 - ПЕТЪР НИЗАМОВ ЕТ",
        "lat": 42.3279596740331,
        "lng": 23.5598212480545
    },
    {
        "name": "ВЕНЦИСЛАВ 52 ЕТ",
        "lat": 42.3083562601655,
        "lng": 23.761297725141
    },
    {
        "name": "ВАСИМЕКС-СТРИНСКИ И С-ИЕ СД",
        "lat": 42.33257460399,
        "lng": 23.8726763497261
    },
    {
        "name": "ПЕТРУМ ЕООД",
        "lat": 42.4371980970935,
        "lng": 23.8165538082985
    },
    {
        "name": "ШИВИКА-БОЖИДАР ИВАНОВ ЕТ",
        "lat": 42.603383881711,
        "lng": 23.594822330923
    },
    {
        "name": "ДЕВА-78 ЕТ",
        "lat": 42.2615168912254,
        "lng": 23.8234511087803
    },
    {
        "name": "ЙОТИ ООД",
        "lat": 42.3550391488456,
        "lng": 23.5480121523141
    },
    {
        "name": "ИВАНИНА 05-ИРЕНА ДРАГАНОВА ЕТ",
        "lat": 42.31123,
        "lng": 23.76342
    },
    {
        "name": "ЖАНЕТА НОВАКОВА ЕТ",
        "lat": 42.4334012685744,
        "lng": 23.8228569994835
    },
    {
        "name": "ШАНС-РУМЯНА СТЕФАНОВА ЕТ",
        "lat": 42.311236890429,
        "lng": 23.7539919170433
    },
    {
        "name": "ЛИЛС -ЙОРДАНКА МИЛЕВА  ЕТ",
        "lat": 42.5611513689929,
        "lng": 23.7049524556068
    },
    {
        "name": "А.Д.АНЖЕЛО ЕООД",
        "lat": 42.3384289662926,
        "lng": 23.5460901548949
    },
    {
        "name": "ДИА - СИ ООД",
        "lat": 42.4432944669901,
        "lng": 23.815592341125
    },
    {
        "name": "АЛТ ЪФ СПЕЙС ЕООД",
        "lat": 42.6063451998505,
        "lng": 23.5935000018787
    },
    {
        "name": "ДЖАМБО-К.ДЖАМБАЗОВ ЕТ",
        "lat": 42.3119578442313,
        "lng": 23.7688641320137
    },
    {
        "name": "ЪНКЪЛ И ФИШ 5 ЕООД",
        "lat": 42.310974781753,
        "lng": 23.7642853707075
    },
    {
        "name": "ДИЕМ  ГРУП 2008 ООД",
        "lat": 42.2868,
        "lng": 23.68761
    },
    {
        "name": "ДИЕМ  ГРУП 2008 ООД",
        "lat": 42.3375730351637,
        "lng": 23.5459007977077
    },
    {
        "name": "ДИЕМ  ГРУП 2008 ООД",
        "lat": 42.3313995268755,
        "lng": 23.5506165772676
    },
    {
        "name": "ДИЕМ  ГРУП 2008 ООД",
        "lat": 42.34157,
        "lng": 23.55816
    },
    {
        "name": "МОНИ-Б.ТРАЙКОВА ЕТ",
        "lat": 42.5599343895083,
        "lng": 23.7094585667518
    },
    {
        "name": "ПАРАДИЗО  2009 ЕООД",
        "lat": 42.4383857960038,
        "lng": 23.8208989869026
    },
    {
        "name": "РПК РАЗВИТИЕ  ЕЛИН ПЕЛИН",
        "lat": 42.60646,
        "lng": 23.59593
    },
    {
        "name": "РПК РАЗВИТИЕ  ЕЛИН ПЕЛИН",
        "lat": 42.62911,
        "lng": 23.5875
    },
    {
        "name": "РПК СРЕДНА ГОРА - ИХТИМАН",
        "lat": 42.4135453375872,
        "lng": 23.7625144422054
    },
    {
        "name": "МИТЕВ 67 ЕТ",
        "lat": 42.6056147544551,
        "lng": 23.5971129374217
    },
    {
        "name": "ГМ-ТАКЕВИ ЕООД",
        "lat": 42.62972,
        "lng": 23.58036
    },
    {
        "name": "Л.БАЛДЖИЙСКИ ЕТ",
        "lat": 42.4380215707307,
        "lng": 23.8208989869026
    },
    {
        "name": "АНЕТА-ГЕРГАНА-ДАРИНКА ТОДОРОВА - ГЕОРГИ ВЕЛИЧКОВ Е",
        "lat": 42.42208,
        "lng": 23.73522
    },
    {
        "name": "АЙ ПИ ЕС ООД",
        "lat": 42.45104,
        "lng": 23.80998
    },
    {
        "name": "МЕГИ-АЛБЕНА КРУМОВА ЕТ",
        "lat": 42.60686,
        "lng": 23.5997
    },
    {
        "name": "ИРА НИКОЛОВА ЕООД",
        "lat": 42.4797669964628,
        "lng": 23.7522451649574
    },
    {
        "name": "ЕЛГЕРА - ЛЮБКА ГЕРОВА ЕТ",
        "lat": 42.43598,
        "lng": 23.81418
    },
    {
        "name": "ДАНИМА 88 ЕООД",
        "lat": 42.30668,
        "lng": 23.86928
    },
    {
        "name": "ВАЙПЪР  -  ЕВГЕНИ ДИМИТРОВ ЕТ",
        "lat": 42.33313,
        "lng": 23.87291
    },
    {
        "name": "МИА РИТЕЙЛ ЕООД",
        "lat": 42.4417948634275,
        "lng": 23.8139843568205
    },
    {
        "name": "МЕСКО И МЛЕЧКО ЕООД",
        "lat": 43.2009,
        "lng": 23.55604
    },
    {
        "name": "РИВИЕРА ЕООД",
        "lat": 42.7897030505202,
        "lng": 23.303701467812
    },
    {
        "name": "43-ТИ КИЛОМЕТЪР ЕООД",
        "lat": 42.431659413091,
        "lng": 23.8517874106764
    },
    {
        "name": "ТИГ АЛ ЕООД",
        "lat": 43.98072,
        "lng": 22.86853
    },
    {
        "name": "УНИ ЕНЕРДЖИ ЕООД",
        "lat": 42.7741253359757,
        "lng": 23.1864393129944
    },
    {
        "name": "УНИ ЕНЕРДЖИ ЕООД",
        "lat": 43.20425,
        "lng": 23.57059
    },
    {
        "name": "КРЕМЕН ЕООД",
        "lat": 43.22161,
        "lng": 23.54055
    },
    {
        "name": "МАЯМИ-М ЕООД",
        "lat": 43.30585,
        "lng": 23.40756
    },
    {
        "name": "Hell 09 Велислава Георгиева",
        "lat": 42.71706,
        "lng": 23.26142
    },
    {
        "name": "Hell 11 Мартин Томанов",
        "lat": 42.65126,
        "lng": 23.2183
    },
    {
        "name": "Hell 02 Таня Пашова",
        "lat": 42.69597,
        "lng": 23.23404
    },
    {
        "name": "HELL 20 Денислав Методиев",
        "lat": 42.69599,
        "lng": 23.23402
    },
    {
        "name": "Hell 21 Георги Колев",
        "lat": 42.69769,
        "lng": 23.32184
    },
    {
        "name": "Hell 12 Петьо Дамбалов",
        "lat": 42.70569,
        "lng": 23.35092
    },
    {
        "name": "Hell 14 Галина Киркорян",
        "lat": 42.69769,
        "lng": 23.32184
    },
    {
        "name": "ГЕНИК КАФЕ РЕШЕНИЯ ООД",
        "lat": 42.6954791406165,
        "lng": 23.2328009605407
    },
    {
        "name": "ХЕЛ ЕНЕРДЖИ БЪЛГАРИЯ ЕООД",
        "lat": 42.654131,
        "lng": 23.34472
    },
    {
        "name": "БК ЕНЕРДЖИ ООД",
        "lat": 42.0109263495906,
        "lng": 23.0341233555724
    },
    {
        "name": "НАДЕЖДА 991 ЕООД",
        "lat": 42.4497,
        "lng": 23.75504
    },
    {
        "name": "ТИНА 2001-СД",
        "lat": 42.6799124024641,
        "lng": 23.2634488181781
    },
    {
        "name": "АЛАГЕН 51-ГЕНКА СЕМКОВА ЕТ",
        "lat": 42.7023688296421,
        "lng": 24.1809238563446
    },
    {
        "name": "АЛАГЕН 51-ГЕНКА СЕМКОВА ЕТ",
        "lat": 42.69897,
        "lng": 24.16827
    },
    {
        "name": "АЛЕКСА-ТАГО-ООД",
        "lat": 42.69884,
        "lng": 24.08568
    },
    {
        "name": "ЕВИАН-М.КОСТАДИНОВ ЕТ",
        "lat": 42.63228,
        "lng": 23.30603
    },
    {
        "name": "ПЕТЪР СТОЯНОВ - КАП 71 ЕТ",
        "lat": 42.6757,
        "lng": 23.35343
    },
    {
        "name": "ПЕТЪР СТОЯНОВ - КАП 71 ЕТ",
        "lat": 42.68303,
        "lng": 23.33159
    },
    {
        "name": "АНМИР ООД",
        "lat": 42.69604,
        "lng": 23.34769
    },
    {
        "name": "СВЛ 2015 ЕООД",
        "lat": 42.6677,
        "lng": 23.39199
    },
    {
        "name": "СИЛВИЯ МИТОВА ЕТ",
        "lat": 42.2805136685765,
        "lng": 22.6916085617256
    },
    {
        "name": "АНБО ЕООД",
        "lat": 42.2656125888144,
        "lng": 22.7047379748535
    },
    {
        "name": "ДЕ - ВИ ЕООД",
        "lat": 42.2735676792284,
        "lng": 22.6598243848991
    },
    {
        "name": "АНДМАРТ ЕООД",
        "lat": 42.6760583370039,
        "lng": 23.3004029528808
    },
    {
        "name": "ЯКИН ТРЕЙДИНГ ЕООД",
        "lat": 42.6992047699166,
        "lng": 23.3048500554275
    },
    {
        "name": "ЯКИН ТРЕЙДИНГ ЕООД",
        "lat": 42.63408,
        "lng": 23.31043
    },
    {
        "name": "ЯКИН ТРЕЙДИНГ ЕООД",
        "lat": 42.6999014336871,
        "lng": 23.2940589264035
    },
    {
        "name": "СКАЙЛАЙН 34 ЕООД",
        "lat": 42.67828,
        "lng": 23.30838
    },
    {
        "name": "СКАЙЛАЙН 34 ЕООД",
        "lat": 42.6888,
        "lng": 23.31453
    },
    {
        "name": "НЮ МЕЙЗИ ЕООД",
        "lat": 42.6845292759056,
        "lng": 23.3038764135551
    },
    {
        "name": "ДИВА 2018 ЕООД",
        "lat": 42.70532,
        "lng": 23.31203
    },
    {
        "name": "СИНХРОН ООД",
        "lat": 42.59797,
        "lng": 23.023
    },
    {
        "name": "СТЕФКА ЕВЛОГИЕВА  ЕТ",
        "lat": 42.64753,
        "lng": 23.08669
    },
    {
        "name": "РУМЕН МИЛЕВ-РАНИ ЕТ",
        "lat": 42.5964173193196,
        "lng": 23.027587427349
    },
    {
        "name": "Т И Д СТОРС ООД",
        "lat": 42.6464,
        "lng": 23.38036
    },
    {
        "name": "БОРАСИМА ЕТ",
        "lat": 42.5838919356784,
        "lng": 23.1143381135177
    },
    {
        "name": "ГРОНКО-200 ООД",
        "lat": 42.65469,
        "lng": 23.39892
    },
    {
        "name": "КНК КОМЕРС ЕООД",
        "lat": 42.69769,
        "lng": 23.32184
    },
    {
        "name": "ЕДИ 2005 ООД",
        "lat": 42.61409,
        "lng": 23.09216
    },
    {
        "name": "ЕДИ 2005 ООД",
        "lat": 42.61605,
        "lng": 23.06311
    },
    {
        "name": "ЖИВКОВ ЕООД",
        "lat": 42.5840989722729,
        "lng": 23.1658740411667
    },
    {
        "name": "ДОНИ ЕООД",
        "lat": 42.6088819504522,
        "lng": 23.0991433994483
    },
    {
        "name": "НИКЕА ЕООД",
        "lat": 42.4780396949994,
        "lng": 22.7466555373382
    },
    {
        "name": "КАТЕРИНА - 2007 ООД",
        "lat": 42.608925380297,
        "lng": 23.112504823656
    },
    {
        "name": "КУИК 2 ООД",
        "lat": 42.7196349582863,
        "lng": 23.2674175500869
    },
    {
        "name": "КУИК ООД",
        "lat": 42.70874,
        "lng": 23.2831
    },
    {
        "name": "КИК 12 ТРЕЙД ЕООД",
        "lat": 42.71137,
        "lng": 23.29703
    },
    {
        "name": "КИК 12 ТРЕЙД ЕООД",
        "lat": 42.70016,
        "lng": 23.32311
    },
    {
        "name": "КУИК 2 ООД",
        "lat": 42.7093922714517,
        "lng": 23.3137024194002
    },
    {
        "name": "КУИК 2 ООД",
        "lat": 42.71351,
        "lng": 23.248885
    },
    {
        "name": "КУИК 2 ООД",
        "lat": 42.7427463918297,
        "lng": 23.2733056694269
    },
    {
        "name": "КУИК  ООД",
        "lat": 42.697685,
        "lng": 23.321836
    },
    {
        "name": "КУИК 2 ООД",
        "lat": 42.7393392190013,
        "lng": 23.2739896327257
    },
    {
        "name": "КУИК 21 ТРЕЙД ЕООД",
        "lat": 42.70946,
        "lng": 23.31357
    },
    {
        "name": "КУИК 2 ООД",
        "lat": 42.7315606488248,
        "lng": 23.2492496073246
    },
    {
        "name": "КУИК 21 ТРЕЙД ЕООД",
        "lat": 42.6946,
        "lng": 23.2988
    },
    {
        "name": "ВИЛИ-ВС ЕООД",
        "lat": 42.69662,
        "lng": 23.32309
    },
    {
        "name": "НИЖ - Г.КАРАИВАНОВ ЕТ",
        "lat": 42.6807146511009,
        "lng": 23.3618699000001
    },
    {
        "name": "ПЛАМКО  ЕООД",
        "lat": 42.70733,
        "lng": 23.14399
    },
    {
        "name": "ПЛАМКО  ЕООД",
        "lat": 42.69769,
        "lng": 23.32184
    },
    {
        "name": "ПЛАМКО  ЕООД",
        "lat": 42.69769,
        "lng": 23.32184
    },
    {
        "name": "БАУМ ЕООД",
        "lat": 42.69163,
        "lng": 23.33591
    },
    {
        "name": "ПЛАМКО  ЕООД",
        "lat": 42.7121211638202,
        "lng": 23.2701577618718
    },
    {
        "name": "БАУМ ЕООД",
        "lat": 42.70374,
        "lng": 23.30141
    },
    {
        "name": "МАГИКО КОМЕРС ООД",
        "lat": 42.652095831778,
        "lng": 23.3439411672645
    },
    {
        "name": "ВМВ ЕООД",
        "lat": 42.6615568643097,
        "lng": 23.3465289013099
    },
    {
        "name": "ДЕСИ-Р.МИХАЙЛОВА ЕТ",
        "lat": 42.705370439298,
        "lng": 23.3434255854797
    },
    {
        "name": "ПЛАМ 58 В. СИМЕОНОВА ЕТ",
        "lat": 42.65161,
        "lng": 23.38182
    },
    {
        "name": "БОРЯНА - М  ЕТ",
        "lat": 42.5856954656277,
        "lng": 23.3628534959268
    },
    {
        "name": "ЛИНКС - РЪСИН ЕООД",
        "lat": 42.70125,
        "lng": 23.31865
    },
    {
        "name": "СТОБИС ООД",
        "lat": 42.672332646196,
        "lng": 23.2890969764739
    },
    {
        "name": "СТОБИС ООД",
        "lat": 42.6816515340831,
        "lng": 23.2896164493274
    },
    {
        "name": "СТОБИС ООД",
        "lat": 42.6813064721564,
        "lng": 23.2859498696041
    },
    {
        "name": "АБ ЕКСПРЕС МАРКЕТ ООД",
        "lat": 42.6625468499189,
        "lng": 23.2535998150706
    },
    {
        "name": "БОРИВЛАД - 7 ЕООД",
        "lat": 42.712889528495,
        "lng": 23.1465686112642
    },
    {
        "name": "ДЕМИУРГ - КАЛОЯН КОСТОВ ЕТ",
        "lat": 42.66341,
        "lng": 23.31631
    },
    {
        "name": "ЕЛПИНА_НАДКА КУСЕВА ЕТ",
        "lat": 42.71531,
        "lng": 24.13835
    },
    {
        "name": "ЛЪКИ-ВРАЦА ЕООД",
        "lat": 43.21774,
        "lng": 23.55301
    },
    {
        "name": "КАЛИНА 76- КАЛИНА БАНЧЕВА ООД",
        "lat": 42.34714,
        "lng": 23.52397
    },
    {
        "name": "ЧЕРКЕЗКИ-ЦВЕТОМИР ЦЕКОВ ЕТ",
        "lat": 43.67588,
        "lng": 24.00132
    },
    {
        "name": "ДЕСИ - СТИЛ - 2011 ЕООД",
        "lat": 42.66571,
        "lng": 23.27287
    },
    {
        "name": "ЗОДИ-РАЙ ООД",
        "lat": 42.69338,
        "lng": 23.35599
    },
    {
        "name": "ЗОДИ-РАЙ ООД",
        "lat": 42.68045,
        "lng": 23.37345
    },
    {
        "name": "ЕСЕЙДИ ЕООД",
        "lat": 42.66893,
        "lng": 23.30104
    },
    {
        "name": "ДЕСИСЛАВА - 93 - ДЕСИСЛАВА БОГДАНОВА ЕТ",
        "lat": 42.66476,
        "lng": 23.53003
    },
    {
        "name": "ЛОРИ ЕТ",
        "lat": 42.67313724664,
        "lng": 23.2805997383147
    },
    {
        "name": "УЗУНОВИ-Г.УЗУНОВ ЕТ",
        "lat": 42.6841862016585,
        "lng": 23.3163084523391
    },
    {
        "name": "КРАСИ-98-КР.АНТОВ  ЕТ",
        "lat": 42.6653266,
        "lng": 23.260285
    },
    {
        "name": "ПРОМОТЕКС 35 ЕООД",
        "lat": 42.6552688232379,
        "lng": 23.3808253705501
    },
    {
        "name": "ЕРИК 96 ЕТ",
        "lat": 42.6661405867691,
        "lng": 23.3011888401222
    },
    {
        "name": "АЛЕКС 77 ЕТ",
        "lat": 42.67819,
        "lng": 23.29029
    },
    {
        "name": "ЕС ТИ ЕС ДИ ЕООД",
        "lat": 42.623519758727,
        "lng": 23.1918706449562
    },
    {
        "name": "МАРГИНОВ КОМЕРС ЕООД",
        "lat": 42.67121,
        "lng": 23.32254
    },
    {
        "name": "АТКО-А.СТЕФАНОВ ЕТ",
        "lat": 42.64289,
        "lng": 23.36779
    },
    {
        "name": "ТОНВАС ООД",
        "lat": 42.69662,
        "lng": 23.37497
    },
    {
        "name": "АТЕКВАД 1 ЕООД",
        "lat": 43.80671,
        "lng": 23.25878
    },
    {
        "name": "ТЕНДЪР СИСТЕМ ООД",
        "lat": 42.65628,
        "lng": 23.35569
    },
    {
        "name": "ВИМАД-АСЕНОВА ЕТ",
        "lat": 42.7130175415473,
        "lng": 23.4192569987487
    },
    {
        "name": "ЕТ ЕЛИСАВЕТА МИТОВА",
        "lat": 42.6809130992226,
        "lng": 23.2985951440048
    },
    {
        "name": "ВЕГА-Н ВЕРА ИЛИЕВА ЕТ",
        "lat": 42.6924734917575,
        "lng": 23.3593837313521
    },
    {
        "name": "Л И М Л.АСПАРУХОВ  ЕТ",
        "lat": 42.6907455736203,
        "lng": 23.3636914134917
    },
    {
        "name": "КАРМОНИ ЕООД",
        "lat": 42.73242,
        "lng": 23.47001
    },
    {
        "name": "ФУУД ТРЕЙД - 2015 ЕООД",
        "lat": 42.66122,
        "lng": 23.26957
    },
    {
        "name": "ФУУДТРЕЙД - 2017 ЕООД",
        "lat": 42.69541,
        "lng": 23.35857
    },
    {
        "name": "ОЛВИ-БОРИСЛАВА НИКОЛОВА ЕТ",
        "lat": 42.71285,
        "lng": 24.13942
    },
    {
        "name": "ВАЛЕНТИН БЛАГОЕВ  ЕТ",
        "lat": 42.5596,
        "lng": 23.71018
    },
    {
        "name": "ДАРИА 2012 ЕООД",
        "lat": 42.55621,
        "lng": 23.71018
    },
    {
        "name": "ВЕНЦИСЛАВ 52 ЕТ",
        "lat": 42.3081653383922,
        "lng": 23.7611232767967
    },
    {
        "name": "ГРЕТА 90 ЕООД",
        "lat": 42.810187417814,
        "lng": 23.2152076810598
    },
    {
        "name": "АЛЕКС-АЛЕКСАНДЪР ПАНОВ ЕТ",
        "lat": 42.6922,
        "lng": 23.70749
    },
    {
        "name": "ОНИКС ТРЕЙД - СТОИЧКОВИ ООД",
        "lat": 42.63661,
        "lng": 24.35959
    },
    {
        "name": "ОНИКС ТРЕЙД - СТОИЧКОВИ ООД",
        "lat": 42.64126,
        "lng": 24.35808
    },
    {
        "name": "ВАСИМЕКС-СТРИНСКИ И С-ИЕ СД",
        "lat": 42.33257460399,
        "lng": 23.8726763497261
    },
    {
        "name": "САМАРКО- ВАСИЛ КРЪСТАНОВ   ЕТ",
        "lat": 42.6998237298496,
        "lng": 23.4922291772079
    },
    {
        "name": "ШИВИКА-БОЖИДАР ИВАНОВ ЕТ",
        "lat": 42.603383881711,
        "lng": 23.594822330923
    },
    {
        "name": "ЕЛИТ ГРУП ООД",
        "lat": 42.70926,
        "lng": 23.34411
    },
    {
        "name": "БРАТЯ ТОНЧЕВИ ООД",
        "lat": 42.65855,
        "lng": 23.39782
    },
    {
        "name": "КРИТ ДП ЕООД",
        "lat": 42.6736677250572,
        "lng": 23.2867178570777
    },
    {
        "name": "КРИТ ДП ЕООД",
        "lat": 42.72663,
        "lng": 23.26002
    },
    {
        "name": "ГЮРО - 47 ЕООД",
        "lat": 42.67819,
        "lng": 23.37473
    },
    {
        "name": "ДАНИ 2000 ЕТ",
        "lat": 42.6981605543103,
        "lng": 24.177029288855
    },
    {
        "name": "ДЕНИ 2000 ООД",
        "lat": 42.69231,
        "lng": 23.31484
    },
    {
        "name": "ДЕНИ 2000 ООД",
        "lat": 42.68136,
        "lng": 23.37367
    },
    {
        "name": "СЛАВИ - СЛАВИН СЛАВОВ ЕТ",
        "lat": 42.68372,
        "lng": 23.37803
    },
    {
        "name": "СЛАВИ 73 ЕООД",
        "lat": 42.65065,
        "lng": 23.4025
    },
    {
        "name": "ЕВЕЛ 19 ЕООД",
        "lat": 42.65911,
        "lng": 23.24146
    },
    {
        "name": "ЕВЕЛ-19 ЕООД",
        "lat": 42.65905,
        "lng": 23.34094
    },
    {
        "name": "ЕВЕЛИНА ГЕОРГИЕВА ЕТ",
        "lat": 42.67863,
        "lng": 23.29636
    },
    {
        "name": "ФОКУС М.П. ЕООД",
        "lat": 42.69238,
        "lng": 23.32358
    },
    {
        "name": "МВМ-2000 ЕООД",
        "lat": 42.69769,
        "lng": 23.32184
    },
    {
        "name": "ПРОВИЖЪН 1 ООД",
        "lat": 42.6491919279916,
        "lng": 23.346183494001
    },
    {
        "name": "СИЛВИЯ СТЕФАНОВА ЕТ",
        "lat": 42.7132829843763,
        "lng": 24.1307725462013
    },
    {
        "name": "ЗАР-ЗОЯ АРСОВА  ЕТ",
        "lat": 42.654897636171,
        "lng": 23.2968007461738
    },
    {
        "name": "ВЕСТА 01 ООД",
        "lat": 42.67429,
        "lng": 23.59977
    },
    {
        "name": "РУПИС 2001  ЕООД",
        "lat": 42.692889362491,
        "lng": 23.2283057722145
    },
    {
        "name": "РУПИС 2001  ЕООД",
        "lat": 42.71688,
        "lng": 23.18145
    },
    {
        "name": "НЮ АЙДА ГЛОБАЛ ЕООД",
        "lat": 42.65073,
        "lng": 23.35319
    },
    {
        "name": "ЖАНЕТА НОВАКОВА ЕТ",
        "lat": 42.4334012685744,
        "lng": 23.8228569994835
    },
    {
        "name": "ДИПРО ТРЕЙД ЕООД",
        "lat": 42.66444,
        "lng": 23.24363
    },
    {
        "name": "ИВЕЛИН - 91 - МИЛЧО МИХАЙЛОВ ЕТ",
        "lat": 42.72418,
        "lng": 23.77532
    },
    {
        "name": "ВИГ-КАЛИН ВАЧЕВ ЕТ",
        "lat": 42.67655,
        "lng": 23.29157
    },
    {
        "name": "ЕЛПИНА-Н.КУСЕВА ЕТ",
        "lat": 42.7141284401515,
        "lng": 24.138457075029
    },
    {
        "name": "ГАЗТРЕЙД-ПИРДОП 2 ООД",
        "lat": 42.70946,
        "lng": 24.19644
    },
    {
        "name": "1-РАДКА МИХАЙЛОВА ЕТ",
        "lat": 42.71284,
        "lng": 24.13944
    },
    {
        "name": "АБЕКС БГ ООД",
        "lat": 42.64116,
        "lng": 23.64574
    },
    {
        "name": "ЕРС - 3 ЕООД",
        "lat": 42.65228,
        "lng": 23.37312
    },
    {
        "name": "ПОЛ БОББИС ООД",
        "lat": 42.7215750689881,
        "lng": 23.3341223435115
    },
    {
        "name": "АДОНИС РЕЙ",
        "lat": 42.72171,
        "lng": 23.33411
    },
    {
        "name": "БОНИКО 72 ЕООД",
        "lat": 42.67931,
        "lng": 23.61095
    },
    {
        "name": "АЛМОНД 17 ЕООД",
        "lat": 42.7248840466231,
        "lng": 23.257060535252
    },
    {
        "name": "ИНИЦИАТИВИ АД",
        "lat": 42.6445872265417,
        "lng": 23.3419080528312
    },
    {
        "name": "ИНИЦИАТИВИ АД",
        "lat": 42.67895,
        "lng": 23.2894
    },
    {
        "name": "СТИКО-СТЕФКА  ПОПОВА ЕТ",
        "lat": 42.6752716043806,
        "lng": 23.2828258711639
    },
    {
        "name": "ДЕССКО - 2023 ЕООД",
        "lat": 42.68826,
        "lng": 23.30695
    },
    {
        "name": "ДАРОНИКА ЕООД",
        "lat": 42.54053,
        "lng": 23.36506
    },
    {
        "name": "РЕКОРД - 2004 ЕООД",
        "lat": 42.66287,
        "lng": 23.34496
    },
    {
        "name": "РЕКОРД - 2004 ЕООД",
        "lat": 42.6524450012986,
        "lng": 23.3602999600464
    },
    {
        "name": "РЕКОРД - 2004 ЕООД",
        "lat": 42.63959,
        "lng": 23.379175
    },
    {
        "name": "РЕКОРД  2013 ООД",
        "lat": 42.66669,
        "lng": 23.28912
    },
    {
        "name": "РЕКОРД - 2004 ЕООД",
        "lat": 42.65206,
        "lng": 23.3729
    },
    {
        "name": "РЕКОРД - 2004 ЕООД",
        "lat": 42.6651663661088,
        "lng": 23.362684585154
    },
    {
        "name": "РЕКОРД  2013 ООД",
        "lat": 42.64654,
        "lng": 23.35424
    },
    {
        "name": "РЕКОРД - 2013 ООД",
        "lat": 42.65029,
        "lng": 23.34216
    },
    {
        "name": "ЕДИ-2017",
        "lat": 42.69446,
        "lng": 23.31549
    },
    {
        "name": "СИТ ЕТ",
        "lat": 42.6586770723589,
        "lng": 23.2993863956642
    },
    {
        "name": "ЕМБОРИОН М ЕООД",
        "lat": 42.6522888717759,
        "lng": 23.4623926877975
    },
    {
        "name": "ЦВЕТАКС ЕООД",
        "lat": 42.66487,
        "lng": 23.423
    },
    {
        "name": "АДИА ТРЕЙД ЕООД",
        "lat": 42.6487747974513,
        "lng": 23.2626649425935
    },
    {
        "name": "ДИРА ЕООД",
        "lat": 42.6718835692024,
        "lng": 23.3003734485816
    },
    {
        "name": "БЕЙКЪРС  ООД",
        "lat": 42.65815,
        "lng": 23.32496
    },
    {
        "name": "ВАНЕЛИ - ЯНКУЛОВИ ООД",
        "lat": 42.66795,
        "lng": 23.60513
    },
    {
        "name": "КИН ТРЕЙД ООД",
        "lat": 42.6675,
        "lng": 23.26668
    },
    {
        "name": "МАРИ ПЕКС ЕООД",
        "lat": 42.6774593948491,
        "lng": 23.2568934993457
    },
    {
        "name": "ЕВРОСПИД ЕООД",
        "lat": 42.68623,
        "lng": 23.35421
    },
    {
        "name": "МЕЛИНС ООД",
        "lat": 42.6773084931287,
        "lng": 23.2393334337642
    },
    {
        "name": "АЛМИКС 05 ЕООД",
        "lat": 42.6667786125609,
        "lng": 23.2683733539295
    },
    {
        "name": "КИК КОМЕРС -С ЕООД",
        "lat": 42.6265755066215,
        "lng": 23.3584841045433
    },
    {
        "name": "КИК КОМЕРС -С ЕООД",
        "lat": 42.68168,
        "lng": 23.35791
    },
    {
        "name": "ГЕРГИНА ИЛИЕВА - 63 ЕООД",
        "lat": 43.00388,
        "lng": 23.34897
    },
    {
        "name": "ЛИЛС -ЙОРДАНКА МИЛЕВА  ЕТ",
        "lat": 42.56129,
        "lng": 23.70483
    },
    {
        "name": "НИКО - 2 ООД",
        "lat": 42.65261,
        "lng": 23.40074
    },
    {
        "name": "НИКО - 2 ООД",
        "lat": 42.66712,
        "lng": 23.52691
    },
    {
        "name": "НИКО - 2 ООД",
        "lat": 42.69769,
        "lng": 23.32184
    },
    {
        "name": "НИКО - 2 ООД",
        "lat": 42.69769,
        "lng": 23.32184
    },
    {
        "name": "РЕД МЪНКИ ЕООД",
        "lat": 42.70417,
        "lng": 23.32354
    },
    {
        "name": "ГАРАНТ 13 БГ ЕООД",
        "lat": 42.70748,
        "lng": 23.14492
    },
    {
        "name": "РЕКС БЪЛГАРИЯ  ООД",
        "lat": 42.6497221353686,
        "lng": 23.4063632380981
    },
    {
        "name": "ЕРА 2006 ЕООД",
        "lat": 42.7032952488229,
        "lng": 24.1800709138779
    },
    {
        "name": "КАСПЪР СТОР ЕООД",
        "lat": 42.65293,
        "lng": 23.37845
    },
    {
        "name": "БОЯНА НП ООД",
        "lat": 42.69769,
        "lng": 23.32184
    },
    {
        "name": "ЕКЗОТИК  2006 ЕООД",
        "lat": 42.6713609124926,
        "lng": 23.2514894662925
    },
    {
        "name": "ЕРАМ-А ЕООД",
        "lat": 42.7319735611769,
        "lng": 23.4753688113403
    },
    {
        "name": "ЕРАМ-А ЕООД",
        "lat": 42.71066,
        "lng": 23.37801
    },
    {
        "name": "ЕРАМ-А ЕООД",
        "lat": 42.7123632387285,
        "lng": 23.4057601229858
    },
    {
        "name": "ДИА - СИ ООД",
        "lat": 42.4432788780915,
        "lng": 23.8158564339546
    },
    {
        "name": "РАДИ - М 2016 ЕООД",
        "lat": 42.66724,
        "lng": 23.26607
    },
    {
        "name": "КА 3 ЕНТЪР ТРЕЙД ЕООД",
        "lat": 42.61017,
        "lng": 23.36365
    },
    {
        "name": "ЦВЕТНА ЗОРА ЕООД",
        "lat": 42.7190777321414,
        "lng": 23.2961480319499
    },
    {
        "name": "ЕСКАЛИБУР - 359 ЕООД",
        "lat": 42.72847,
        "lng": 23.30745
    },
    {
        "name": "ТИВЕЯ  ЕООД",
        "lat": 42.6693415850959,
        "lng": 23.4128844738006
    },
    {
        "name": "АЛТ ЪФ СПЕЙС ЕООД",
        "lat": 42.6063451998505,
        "lng": 23.5935000018787
    },
    {
        "name": "РАНДИ ООД",
        "lat": 42.68038,
        "lng": 23.28975
    },
    {
        "name": "МОНИК ООД",
        "lat": 42.70048,
        "lng": 24.17322
    },
    {
        "name": "ЕДЕЛВАЙС - И ЕООД",
        "lat": 42.66249,
        "lng": 23.46448
    },
    {
        "name": "БОРЯНА  2007  ЕООД",
        "lat": 42.68857,
        "lng": 23.414315
    },
    {
        "name": "БОРЯНА  2007  ЕООД",
        "lat": 42.69769,
        "lng": 23.32184
    },
    {
        "name": "БОРЯНА  2007  ЕООД",
        "lat": 42.66748,
        "lng": 23.4018
    },
    {
        "name": "БОРЯНА  2007  ЕООД",
        "lat": 42.68663,
        "lng": 23.3104
    },
    {
        "name": "БОРЯНА  2007  ЕООД",
        "lat": 42.64954,
        "lng": 23.34568
    },
    {
        "name": "МИРСКИ   ЕООД",
        "lat": 42.6797498140096,
        "lng": 23.2628232613205
    },
    {
        "name": "РЕЙЛИ СТАР ООД",
        "lat": 42.60182913334,
        "lng": 23.4762700335693
    },
    {
        "name": "РЕЙЛИ СТАР ООД",
        "lat": 42.60053,
        "lng": 23.49584
    },
    {
        "name": "КАЛИН ИГНАТОВ 2007 ЕООД",
        "lat": 42.6449710841836,
        "lng": 23.2694375203561
    },
    {
        "name": "ВОДОЛЕЙ 97 ЕООД",
        "lat": 42.71608,
        "lng": 24.1379
    },
    {
        "name": "БС-ГРУП ЕООД",
        "lat": 42.61564,
        "lng": 23.33791
    },
    {
        "name": "ВИНС - КОМЕРС ЕООД",
        "lat": 42.6654,
        "lng": 23.28451
    },
    {
        "name": "ЪНКЪЛ И ФИШ 5 ЕООД",
        "lat": 42.31103,
        "lng": 23.76426
    },
    {
        "name": "СЕТИ ТРЕЙДИНГ  ЕООД",
        "lat": 42.68577,
        "lng": 23.29703
    },
    {
        "name": "СЕТИ ТРЕЙДИНГ  ЕООД",
        "lat": 42.68203,
        "lng": 23.29015
    },
    {
        "name": "ОНИКС ГБ ООД",
        "lat": 42.70974,
        "lng": 23.31332
    },
    {
        "name": "ЧИЙФ- А и А ООД",
        "lat": 42.67749,
        "lng": 23.32238
    },
    {
        "name": "ТИМЕКС 2008 ЕООД",
        "lat": 42.58627,
        "lng": 23.35997
    },
    {
        "name": "ДИЕМ  ГРУП 2008 ООД",
        "lat": 42.33772,
        "lng": 23.54559
    },
    {
        "name": "ДИЕМ  ГРУП 2008 ООД",
        "lat": 42.3375730351637,
        "lng": 23.5459007977077
    },
    {
        "name": "ДИЕМ  ГРУП 2008 ООД",
        "lat": 42.2868,
        "lng": 23.68761
    },
    {
        "name": "ТЕМАТЕК  ООД",
        "lat": 42.6826837507458,
        "lng": 23.3140875832748
    },
    {
        "name": "Р.Г.БАЙЧЕВИ ООД",
        "lat": 42.6612965050399,
        "lng": 23.2927988903236
    },
    {
        "name": "АНЕЛИМ-АЗ  ЕООД",
        "lat": 42.72663,
        "lng": 23.34438
    },
    {
        "name": "ОУПЕН ТУРИЗЪМ ЕООД",
        "lat": 42.6743362397385,
        "lng": 23.285518909648
    },
    {
        "name": "НАЗАРЕТ МОЛ ЕООД",
        "lat": 42.6577361799188,
        "lng": 23.4625103013229
    },
    {
        "name": "АНДРЕА 1891 ЕООД",
        "lat": 42.61509,
        "lng": 23.04046
    },
    {
        "name": "АЙ ЕНД ДИ ТРЕЙДИНГ ЕООД",
        "lat": 42.6673633816118,
        "lng": 23.3539639846992
    },
    {
        "name": "АЙ ЕНД ДИ ТРЕЙДИНГ ЕООД",
        "lat": 42.69945,
        "lng": 23.31358
    },
    {
        "name": "АЙ ЕНД ДИ ТРЕЙДИНГ ЕООД",
        "lat": 42.62899,
        "lng": 23.3093
    },
    {
        "name": "АЙ ЕНД ДИ ТРЕЙДИНГ ЕООД",
        "lat": 42.66651,
        "lng": 23.34556
    },
    {
        "name": "АНДРИПРО ЕООД",
        "lat": 42.67386,
        "lng": 23.33396
    },
    {
        "name": "СПОТ КЪМПАНИ ООД",
        "lat": 42.69769,
        "lng": 23.32184
    },
    {
        "name": "АНДРИПРО ЕООД",
        "lat": 42.70342,
        "lng": 23.38758
    },
    {
        "name": "МТГ ТРЕЙД ООД",
        "lat": 42.6417445906743,
        "lng": 23.3811992034316
    },
    {
        "name": "МЛ 1ТРЕЙД ООД",
        "lat": 42.65514,
        "lng": 23.37404
    },
    {
        "name": "БИАНКА 2008 ЕООД",
        "lat": 42.6159502534281,
        "lng": 23.3375549004983
    },
    {
        "name": "ЕРМЕНКОВА  87  ЕООД",
        "lat": 42.66551,
        "lng": 23.28446
    },
    {
        "name": "ТИАДОРО  ЕООД",
        "lat": 42.69163,
        "lng": 23.38237
    },
    {
        "name": "ПОЛИ-ПОЛИНА МИРКОВА ЕТ",
        "lat": 42.6754563308139,
        "lng": 23.2830405485183
    },
    {
        "name": "КРАСИ - 11 ООД",
        "lat": 42.66338412093,
        "lng": 23.3633685484528
    },
    {
        "name": "БУГИМЕН ООД",
        "lat": 42.60743,
        "lng": 23.04803
    },
    {
        "name": "МИЛЕНА 2009 ЕООД",
        "lat": 42.2840379692167,
        "lng": 22.69167829916
    },
    {
        "name": "ВАЛЕВА-1  ЕООД",
        "lat": 42.60938,
        "lng": 23.04236
    },
    {
        "name": "М и Е ЗВЕЗДАНОВИ  ООД",
        "lat": 42.5334870445904,
        "lng": 23.3669894622278
    },
    {
        "name": "НИКАР ГРУП ЕООД",
        "lat": 42.6101818717074,
        "lng": 23.0341534750175
    },
    {
        "name": "НИКАР ГРУП ЕООД",
        "lat": 42.60999,
        "lng": 23.03389
    },
    {
        "name": "СТЕЛА  82  ЕООД",
        "lat": 42.71161,
        "lng": 23.40267
    },
    {
        "name": "Б И В ИНЖЕНЕРИНГ ЕООД",
        "lat": 42.6638053762468,
        "lng": 23.3009206192207
    },
    {
        "name": "МИМЕКС ТРЕЙД ЕООД",
        "lat": 42.6165818856728,
        "lng": 23.4183269427728
    },
    {
        "name": "СИ КОМ ПЛЮС ООД",
        "lat": 42.6074497354806,
        "lng": 23.0966797904682
    },
    {
        "name": "МОНИ ИНВЕСТ ООД",
        "lat": 42.66988,
        "lng": 23.27275
    },
    {
        "name": "ЛИМАР 63 ЕООД",
        "lat": 42.6979727453258,
        "lng": 23.3792598979187
    },
    {
        "name": "И - В - 96 ЕООД",
        "lat": 42.65616,
        "lng": 23.42785
    },
    {
        "name": "ФЪРТУНЕЛИ ЕООД",
        "lat": 42.5849529290934,
        "lng": 23.3551716493082
    },
    {
        "name": "БОРАНИ-П ЕООД",
        "lat": 42.6793359732759,
        "lng": 23.264642804861
    },
    {
        "name": "БОСИЛА ЕООД",
        "lat": 42.69683,
        "lng": 23.35152
    },
    {
        "name": "ТАНДЕМ ТРЕЙД 2009 ООД",
        "lat": 42.7831770651988,
        "lng": 23.519078089447
    },
    {
        "name": "ДИНА-ПАНЧАРЕВО ЕООД",
        "lat": 42.59215,
        "lng": 23.41062
    },
    {
        "name": "МАНДАРИН-МН ООД",
        "lat": 42.69426,
        "lng": 23.32164
    },
    {
        "name": "МАНДАРИН-МН ООД",
        "lat": 42.67116,
        "lng": 23.31729
    },
    {
        "name": "МАНДАРИН-МН ООД",
        "lat": 42.6700700502274,
        "lng": 23.2920191064476
    },
    {
        "name": "ИТЕКС 1 ООД",
        "lat": 42.6522141945458,
        "lng": 23.3459367307716
    },
    {
        "name": "ИТЕКС 1 ООД",
        "lat": 42.6519165219223,
        "lng": 23.3415001630783
    },
    {
        "name": "ИТЕКС 1 ООД",
        "lat": 42.65212,
        "lng": 23.34675
    },
    {
        "name": "ИТЕКС 1 ООД",
        "lat": 42.65195,
        "lng": 23.34249
    },
    {
        "name": "ЯВОР 2009 ООД",
        "lat": 42.65967,
        "lng": 23.32182
    },
    {
        "name": "ДОМБЕВ ЕООД",
        "lat": 42.69462,
        "lng": 23.98933
    },
    {
        "name": "РИМДРИНК ООД",
        "lat": 42.67158,
        "lng": 23.29738
    },
    {
        "name": "МИР ТРЕЙД ЕООД",
        "lat": 42.67116,
        "lng": 23.32872
    },
    {
        "name": "МИР ТРЕЙД ЕООД",
        "lat": 42.67425,
        "lng": 23.32257
    },
    {
        "name": "МИР ТРЕЙД ЕООД",
        "lat": 42.67057,
        "lng": 23.32202
    },
    {
        "name": "ПРОКОП КОМЕРС ЕООД",
        "lat": 42.67015,
        "lng": 23.30247
    },
    {
        "name": "ПРОКОП КОМЕРС ЕООД",
        "lat": 42.67015,
        "lng": 23.30247
    },
    {
        "name": "ПРОКОП КОМЕРС ЕООД",
        "lat": 42.66969,
        "lng": 23.30254
    },
    {
        "name": "ПАРАДИЗО  2009 ЕООД",
        "lat": 42.43846,
        "lng": 23.8209
    },
    {
        "name": "КРИСО ГРУП ЕООД",
        "lat": 42.6585,
        "lng": 23.35128
    },
    {
        "name": "ДЕСИКО - Д ЕООД",
        "lat": 42.65852,
        "lng": 23.35032
    },
    {
        "name": "БОБИ 2009 ЕООД",
        "lat": 42.65676,
        "lng": 23.33873
    },
    {
        "name": "ЦЕЗАР И СИН ЕООД",
        "lat": 42.6619434563606,
        "lng": 23.3168851272773
    },
    {
        "name": "ЦЕЗАР И СИН ЕООД",
        "lat": 42.6619434563606,
        "lng": 23.3168851272773
    },
    {
        "name": "ЦЕЗАР И СИН ЕООД",
        "lat": 42.67333,
        "lng": 23.33389
    },
    {
        "name": "ДЪЧ 2009 ЕООД",
        "lat": 42.6957313834887,
        "lng": 23.31322927639
    },
    {
        "name": "ВИКТОРИ 345 ЕООД",
        "lat": 42.6753365974823,
        "lng": 23.3093454377365
    },
    {
        "name": "ЕСТАГРО ЕООД",
        "lat": 42.2833216155042,
        "lng": 22.6864882247161
    },
    {
        "name": "ЕВИ-Е.ТОДОРОВ ООД",
        "lat": 42.67568,
        "lng": 23.35342
    },
    {
        "name": "НИГСИ 2010 ЕООД",
        "lat": 42.6881209709417,
        "lng": 23.2572655829483
    },
    {
        "name": "МИНАС ПЛЮС ООД",
        "lat": 42.6599755487604,
        "lng": 23.2494266331195
    },
    {
        "name": "ВИЧОНИ ЕООД",
        "lat": 42.69769,
        "lng": 23.32184
    },
    {
        "name": "СЛЪНЧЕВ ЦВЯТ 2010 ЕООД",
        "lat": 42.67008,
        "lng": 23.28422
    },
    {
        "name": "МАКС-ТАНЧЕВИ ООД",
        "lat": 42.64366,
        "lng": 23.37315
    },
    {
        "name": "МАКС-ТАНЧЕВИ ООД",
        "lat": 42.70321,
        "lng": 23.36564
    },
    {
        "name": "МАКС-ТАНЧЕВИ ООД",
        "lat": 42.663,
        "lng": 23.39653
    },
    {
        "name": "МАКС-ТАНЧЕВИ ООД",
        "lat": 42.62265,
        "lng": 23.32135
    },
    {
        "name": "ДАНИ 115 ЕООД",
        "lat": 42.6542,
        "lng": 23.33355
    },
    {
        "name": "КЕТ 92 ООД",
        "lat": 42.67609,
        "lng": 23.28379
    },
    {
        "name": "ДИВЕРСИЯ ЕМ ЕООД",
        "lat": 42.8228012557979,
        "lng": 23.3538366481661
    },
    {
        "name": "ИЛИНА НИКОЛАЕВА Н ЕООД",
        "lat": 42.64476,
        "lng": 23.37566
    },
    {
        "name": "ТАНЯ ДИМИТРОВА-АЛЕКСАНДРА 2006 ЕТ",
        "lat": 42.65897,
        "lng": 23.45827
    },
    {
        "name": "ГАЛЕРИЯ ЖУАН ЕООД",
        "lat": 42.7179956231402,
        "lng": 23.285264968872
    },
    {
        "name": "БЕТИ 91 ЕТ",
        "lat": 42.6951042136787,
        "lng": 23.2256356331402
    },
    {
        "name": "ТОДОР ТОДОРОВ ЕТ",
        "lat": 42.53235,
        "lng": 23.36536
    },
    {
        "name": "ЕТ ДЕШЕВ-В.ДЕШЕВ",
        "lat": 42.6995595884665,
        "lng": 23.3027042882156
    },
    {
        "name": "ТИГ-666 ЕТ",
        "lat": 42.6768914821754,
        "lng": 23.2546833591175
    },
    {
        "name": "ДЖИМ МАРКЕТ ООД",
        "lat": 42.68294,
        "lng": 23.34924
    },
    {
        "name": "АБДИ-ДИМИТЪР РАНГЕЛОВ ЕТ",
        "lat": 42.6645173880739,
        "lng": 23.4233768717956
    },
    {
        "name": "АБДИ-СИТИ ООД",
        "lat": 42.66447,
        "lng": 23.4233
    },
    {
        "name": "ПАНОРАМА Р.ГАНЕВА ЕТ",
        "lat": 42.6118207998279,
        "lng": 23.3336013244104
    },
    {
        "name": "АМИНА 2006 ЕООД",
        "lat": 42.69281,
        "lng": 23.28153
    },
    {
        "name": "САНИ-М 1962 ЕООД",
        "lat": 42.6794,
        "lng": 23.46508
    },
    {
        "name": "САНИ-М 1962 ЕООД",
        "lat": 42.65938,
        "lng": 23.45993
    },
    {
        "name": "ИСПАС КОМЕРС ЕООД",
        "lat": 42.704388861563,
        "lng": 23.3862765567016
    },
    {
        "name": "КА ЕНД ЕВ ЕООД",
        "lat": 42.68875,
        "lng": 23.30717
    },
    {
        "name": "С.АНАСТАСОВ ЕТ",
        "lat": 42.65095,
        "lng": 23.40215
    },
    {
        "name": "ХРИДА 97 ООД",
        "lat": 42.6700100583875,
        "lng": 23.3164506094169
    },
    {
        "name": "ИВ И ДЖИ ЕООД",
        "lat": 42.6685542171456,
        "lng": 23.2542937158176
    },
    {
        "name": "СТИВЪН ТД  ООД",
        "lat": 42.72946,
        "lng": 23.24887
    },
    {
        "name": "СТИВЪН-ДЕЯН БОНЕВ ЕТ",
        "lat": 42.7295304908747,
        "lng": 23.2489930526924
    },
    {
        "name": "ВПК СЪЕДИНЕНИЕ",
        "lat": 42.5337123620487,
        "lng": 23.3657502816629
    },
    {
        "name": "СУПЕР КООП ЕООД",
        "lat": 42.8092178295896,
        "lng": 23.3760027587413
    },
    {
        "name": "КООП МАРКЕТ ЕООД",
        "lat": 42.6872857191639,
        "lng": 23.2729804515838
    },
    {
        "name": "КООП МАРКЕТ ЕООД",
        "lat": 42.7102917327562,
        "lng": 23.1468157097697
    },
    {
        "name": "ПК ЗЛАТИЦА 91",
        "lat": 42.713399259863,
        "lng": 24.1400127562576
    },
    {
        "name": "ПК ЗЛАТИЦА 91",
        "lat": 42.713519476663,
        "lng": 24.1378696712547
    },
    {
        "name": "ПК ЗЛАТИЦА 91",
        "lat": 42.7170726647693,
        "lng": 24.1302441510254
    },
    {
        "name": "ПК ЗЛАТИЦА 91",
        "lat": 42.70697,
        "lng": 24.16605
    },
    {
        "name": "ПК ЗЛАТИЦА 91",
        "lat": 42.73509,
        "lng": 24.25981
    },
    {
        "name": "ПК ЗЛАТИЦА 91",
        "lat": 42.70712,
        "lng": 24.18887
    },
    {
        "name": "ПК ЗЛАТИЦА 91",
        "lat": 42.68485,
        "lng": 24.10601
    },
    {
        "name": "ПК ЗЛАТИЦА 91",
        "lat": 42.68634,
        "lng": 24.05484
    },
    {
        "name": "ПК ОРАЧ",
        "lat": 42.327928353945,
        "lng": 22.7409531609725
    },
    {
        "name": "ПК САМОПОМОЩ",
        "lat": 42.68721,
        "lng": 22.9103
    },
    {
        "name": "КООПЕРАЦИЯ НАПРЕД",
        "lat": 42.90796,
        "lng": 23.7888
    },
    {
        "name": "РПК РАЗВИТИЕ  ЕЛИН ПЕЛИН",
        "lat": 42.66725,
        "lng": 23.52723
    },
    {
        "name": "РПК РАЗВИТИЕ  ЕЛИН ПЕЛИН",
        "lat": 42.63287,
        "lng": 23.68635
    },
    {
        "name": "РПК РАЗВИТИЕ  ЕЛИН ПЕЛИН",
        "lat": 42.66874,
        "lng": 23.60204
    },
    {
        "name": "РПК РАЗВИТИЕ  ЕЛИН ПЕЛИН",
        "lat": 42.71256,
        "lng": 23.62681
    },
    {
        "name": "РПК РАЗВИТИЕ  ЕЛИН ПЕЛИН",
        "lat": 42.74445,
        "lng": 23.62851
    },
    {
        "name": "РПК РАЗВИТИЕ  ЕЛИН ПЕЛИН",
        "lat": 42.69288,
        "lng": 23.60151
    },
    {
        "name": "РПК РАЗВИТИЕ  ЕЛИН ПЕЛИН",
        "lat": 42.66763,
        "lng": 23.65236
    },
    {
        "name": "РПК РАЗВИТИЕ  ЕЛИН ПЕЛИН",
        "lat": 42.60646,
        "lng": 23.59593
    },
    {
        "name": "РПК РАЗВИТИЕ  ЕЛИН ПЕЛИН",
        "lat": 42.630295,
        "lng": 23.581905
    },
    {
        "name": "РПК СРЕДНА ГОРА - ИХТИМАН",
        "lat": 42.41334,
        "lng": 23.76329
    },
    {
        "name": "АСО 79 ООД",
        "lat": 42.71672,
        "lng": 23.24992
    },
    {
        "name": "ВИВАДЖЕ ООД",
        "lat": 42.67805,
        "lng": 23.30041
    },
    {
        "name": "ИВАНИНА ТРЕЙДИНГ ЕООД",
        "lat": 42.71991,
        "lng": 23.34044
    },
    {
        "name": "ГЕ - 13 ЕООД",
        "lat": 42.6971453917652,
        "lng": 23.2774386182427
    },
    {
        "name": "ГРУП ТРЕЙД 21 ЕООД",
        "lat": 42.72319,
        "lng": 23.25151
    },
    {
        "name": "НОА РУСЕВ ЕООД",
        "lat": 42.69769,
        "lng": 23.32184
    },
    {
        "name": "ЕМ И ЕМ - 2020 ЕООД",
        "lat": 42.27913,
        "lng": 22.68308
    },
    {
        "name": "МИПЕ 16 ЕООД",
        "lat": 42.64614,
        "lng": 23.37146
    },
    {
        "name": "Р И М ПЕРФЕКТ ЕООД",
        "lat": 42.65694,
        "lng": 23.35789
    },
    {
        "name": "УСПЕХ - БАНКЯ - ЦВ. КИРИЛОВА ЕТ",
        "lat": 42.71985,
        "lng": 23.13079
    },
    {
        "name": "ДЕССТРЕЙД ЕООД",
        "lat": 42.003355,
        "lng": 23.110605
    },
    {
        "name": "МАГИ 2-Б.БОРИСОВ ЕТ",
        "lat": 42.681805,
        "lng": 23.37226
    },
    {
        "name": "НИК Б-Б НИКОЛАЙ ЖЕЛЯЗКОВ ЕООД",
        "lat": 42.68598,
        "lng": 23.31208
    },
    {
        "name": "НИКВАС - НИКОЛАЙ ВЕЛКОВ ЕТ",
        "lat": 42.6673950252147,
        "lng": 23.2529584318399
    },
    {
        "name": "МИК-ММ ООД",
        "lat": 42.62803,
        "lng": 23.31049
    },
    {
        "name": "АНИБО ЕТ",
        "lat": 42.68527,
        "lng": 23.26476
    },
    {
        "name": "ДОЛДУРОВИ ООД",
        "lat": 42.68506,
        "lng": 23.2644
    },
    {
        "name": "ЦВЕТАНКА ДИМИТРОВА ЕТ",
        "lat": 42.68505,
        "lng": 23.26456
    },
    {
        "name": "БИС - 4  ЕООД",
        "lat": 42.670075,
        "lng": 23.3828859999999
    },
    {
        "name": "КРАЛЕВ-97 ЕООД",
        "lat": 42.66567,
        "lng": 23.25963
    },
    {
        "name": "ТЕДИ - С.ХРИСТОВ ЕТ",
        "lat": 42.6254753768427,
        "lng": 23.331002263875
    },
    {
        "name": "МИТЕВ 67 ЕТ",
        "lat": 42.6056147544551,
        "lng": 23.5971129374217
    },
    {
        "name": "АРАЛИЯ- 1 З. ТРАЙКОВА  ЕТ",
        "lat": 42.66502,
        "lng": 23.52994
    },
    {
        "name": "ЛИМА - БОЖАНКА ПАНКОВА ЕТ",
        "lat": 42.64083,
        "lng": 23.64544
    },
    {
        "name": "ДЕТЕЛИНА - ГЕКОВ ЕООД",
        "lat": 42.67012,
        "lng": 23.65189
    },
    {
        "name": "ИВАС - 2009 ЕООД",
        "lat": 42.66973,
        "lng": 23.3037
    },
    {
        "name": "СПАС ДЪРВЕНЯКОВ-56 ЕООД",
        "lat": 42.2621947846112,
        "lng": 23.832488812056
    },
    {
        "name": "АЙ ПИ ТРЕЙД 2018 ООД",
        "lat": 42.69846,
        "lng": 23.33033
    },
    {
        "name": "КОМА ГРУП ООД",
        "lat": 42.68101,
        "lng": 23.35699
    },
    {
        "name": "КОМА ГРУП ООД",
        "lat": 42.6884,
        "lng": 23.30467
    },
    {
        "name": "ТИПС ТРЕЙД ООД",
        "lat": 42.67866,
        "lng": 23.28388
    },
    {
        "name": "СИСИ ГРУП ООД",
        "lat": 42.66627,
        "lng": 23.2956
    },
    {
        "name": "АЙ ПИ ЛОДЖИСТИКС ООД",
        "lat": 42.65632,
        "lng": 23.35986
    },
    {
        "name": "КЛАУД СТОР ООД",
        "lat": 42.67124,
        "lng": 23.35972
    },
    {
        "name": "ГИПС ГРУП ООД",
        "lat": 42.67719,
        "lng": 23.30044
    },
    {
        "name": "ГИПС ГРУП ООД",
        "lat": 42.67095,
        "lng": 23.27811
    },
    {
        "name": "УАЙТ СТОР ГРУП ООД",
        "lat": 42.69769,
        "lng": 23.32184
    },
    {
        "name": "ДАРС - Д ООД",
        "lat": 42.67285,
        "lng": 23.35732
    },
    {
        "name": "АСРО М СД",
        "lat": 42.7386895383466,
        "lng": 22.9038249389839
    },
    {
        "name": "АСРО М СД",
        "lat": 42.7386737786179,
        "lng": 22.9038785831642
    },
    {
        "name": "ТЕМЕНУЖКА НИКОЛОВА БГ ООД",
        "lat": 42.71384,
        "lng": 23.30402
    },
    {
        "name": "РУ - ВИ ЕООД",
        "lat": 42.7887005752926,
        "lng": 23.3280511634063
    },
    {
        "name": "ЕКОБОР - 777 - ВЕСЕЛА БОРАДЖИЕВА ЕТ",
        "lat": 42.68539,
        "lng": 23.32327
    },
    {
        "name": "Г И П 1991 ЕООД",
        "lat": 42.8202,
        "lng": 23.37251
    },